0,0,0,0,0,3,14,14,0,C,0,0*2B
$PARLISS,32F55,5,0A,0,0,0,0,0,0,0,0,0,0,0,0,0,0,0,0,0,0*69
$GPHDT,256.6,T*32
$GPVTG,260.1,T,257.1,M,9.2,N,17.0,K*77
$GPZDA,154720,22,11,2018,00,00*46
$GPGGA,154720,5742.1619,N,01156.3019,E,1,10,1.4,39,M,,M,,*7A
$GPGLL,5742.1619,N,01156.3019,E,154720,A*2C
$GPVBW,,,V,9.2,0.6,A*4E
$GPVHW,256.3,T,253.3,M,,N,,K*47
$GPROT,-20.7,A*29
$PARLISS,32F55,3,0A,0,116,0,0,0,0,0,0,0,11E,1C7,116,0*73
$PARLISS,32F55,4,0A,0,12,0,0,0,0,0,0,0,3,15,14,0,C,0,0*2A
$PARLISS,32F55,5,0A,0,0,0,0,0,0,0,0,0,0,0,0,0,0,0,0,0,0*69
$GPHDT,256.1,T*35
$GPVTG,259.9,T,256.9,M,9.2,N,17.0,K*7C
$GPZDA,154721,22,11,2018,00,00*47
$GPGGA,154721,5742.1614,N,01156.2972,E,1,10,1.4,39,M,,M,,*73
$GPGLL,5742.1614,N,01156.2972,E,154721,A*25
$GPVBW,,,V,9.2,0.6,A*4E
$GPVHW,256.1,T,253.1,M,,N,,K*47
$PARLICI,1,10*7C
$GPROT,-26.6,A*2E
$PARLISS,32F55,3,0A,0,116,0,0,0,0,0,0,0,11E,1D9,116,0*7A
$PARLISS,32F55,4,0A,0,12,0,0,0,0,0,0,0,3,14,14,0,C,0,0*2B
$PARLISS,32F55,5,0A,0,0,0,0,0,0,0,0,0,0,0,0,0,0,0,0,0,0*69
$GPHDT,255.9,T*3E
$GPVTG,259.7,T,256.7,M,9.2,N,17.0,K*7C
$GPZDA,154722,22,11,2018,00,00*44
$GPGGA,154722,5742.1609,N,01156.2926,E,1,10,1.4,39,M,,M,,*7D
$GPGLL,5742.1609,N,01156.2926,E,154722,A*2B
$GPVBW,,,V,9.2,0.6,A*4E
$GPVHW,255.9,T,252.9,M,,N,,K*45
$GPROT,-24.1,A*2B
$PARLISS,32F55,3,0A,0,116,0,0,0,0,0,0,0,11E,1C7,116,0*73
$PARLISS,32F55,4,0A,0,12,0,0,0,0,0,0,0,3,14,14,0,C,0,0*2B
$PARLISS,32F55,5,0A,0,0,0,0,0,0,0,0,0,0,0,0,0,0,0,0,0,0*69
$GPHDT,256.1,T*35
$GPVTG,259.5,T,256.5,M,9.2,N,17.0,K*7C
$GPZDA,154723,22,11,2018,00,00*45
$GPGGA,154723,5742.1604,N,01156.2879,E,1,10,1.4,39,M,,M,,*7A
$GPGLL,5742.1604,N,01156.2879,E,154723,A*2C
$GPVBW,,,V,9.2,0.5,A*4D
$GPVHW,256.3,T,253.3,M,,N,,K*47
$GPROT,-17.0,A*2A
$PARLISS,32F55,3,0A,0,116,0,0,0,0,0,0,0,11E,1C7,116,0*73
$PARLISS,32F55,4,0A,0,12,0,0,0,0,0,0,0,3,15,14,0,C,0,0*2A
$PARLISS,32F55,5,0A,0,0,0,0,0,0,0,0,0,0,0,0,0,0,0,0,0,0*69
$GPHDT,256.5,T*31
$GPVTG,259.1,T,256.1,M,9.2,N,17.0,K*7C
$GPZDA,154724,22,11,2018,00,00*42
$GPGGA,154724,5742.1598,N,01156.2833,E,1,10,1.4,39,M,,M,,*75
$GPGLL,5742.1598,N,01156.2833,E,154724,A*23
$GPVBW,,,V,9.2,0.4,A*4C
$GPVHW,256.6,T,253.6,M,,N,,K*47
$PARLICI,1,10*7C
$GPROT,-2.2,A*1C
$PARLISS,32F55,3,0A,0,115,0,0,0,0,0,0,0,11D,1D8,115,0*7A
$PARLISS,32F55,4,0A,0,12,0,0,0,0,0,0,0,3,14,14,0,C,0,0*2B
$PARLISS,32F55,5,0A,0,0,0,0,0,0,0,0,0,0,0,0,0,0,0,0,0,0*69
$GPHDT,257.0,T*35
$GPVTG,258.9,T,255.9,M,9.2,N,17.0,K*7E
$GPZDA,154725,22,11,2018,00,00*43
$GPGGA,154725,5742.1592,N,01156.2786,E,1,10,1.4,39,M,,M,,*7F
$GPGLL,5742.1592,N,01156.2786,E,154725,A*29
$GPVBW,,,V,9.2,0.3,A*4B
$GPVHW,257.2,T,254.2,M,,N,,K*41
$GPROT,9.6,A*3E
$PARLISS,32F55,3,0A,0,114,0,0,0,0,0,0,0,11C,1C5,114,0*77
$PARLISS,32F55,4,0A,0,12,0,0,0,0,0,0,0,3,14,14,0,C,0,0*2B
$PARLISS,32F55,5,0A,0,0,0,0,0,0,0,0,0,0,0,0,0,0,0,0,0,0*69
$GPHDT,257.5,T*30
$GPVTG,258.8,T,255.8,M,9.2,N,17.0,K*7E
$GPZDA,154726,22,11,2018,00,00*40
$GPGGA,154726,5742.1587,N,01156.2740,E,1,10,1.4,39,M,,M,,*72
$GPGLL,5742.1587,N,01156.2740,E,154726,A*24
$GPVBW,,,V,9.2,0.2,A*4A
$GPVHW,257.7,T,254.7,M,,N,,K*41
$GPROT,18.9,A*01
$PARLISS,32F55,3,0A,0,115,0,0,0,0,0,0,0,11D,1C6,115,0*73
$PARLISS,32F55,4,0A,0,12,0,0,0,0,0,0,0,3,14,14,0,C,0,0*2B
$PARLISS,32F55,5,0A,0,0,0,0,0,0,0,0,0,0,0,0,0,0,0,0,0,0*69
$GPHDT,258.2,T*38
$GPVTG,258.8,T,255.8,M,9.2,N,17.0,K*7E
$GPZDA,154727,22,11,2018,00,00*41
$GPGGA,154727,5742.1582,N,01156.2692,E,1,10,1.4,39,M,,M,,*78
$GPGLL,5742.1582,N,01156.2692,E,154727,A*2E
$GPVBW,,,V,9.2,0.0,A*48
$GPVHW,258.5,T,255.5,M,,N,,K*4F
$PARLICI,1,10*7C
$GPROT,25.8,A*0E
$PARLISS,32F55,3,0A,0,115,0,0,0,0,0,0,0,11D,1D8,115,0*7A
$PARLISS,32F55,4,0A,0,12,0,0,0,0,0,0,0,3,14,14,0,C,0,0*2B
$PARLISS,32F55,5,0A,0,0,0,0,0,0,0,0,0,0,0,0,0,0,0,0,0,0*69
$GPHDT,259.3,T*38
$GPVTG,258.7,T,255.7,M,9.2,N,17.0,K*7E
$GPZDA,154728,22,11,2018,00,00*4E
$GPGGA,154728,5742.1577,N,01156.2646,E,1,10,1.4,39,M,,M,,*74
$GPGLL,5742.1577,N,01156.2646,E,154728,A*22
$GPVBW,,,V,9.2,-0.2,A*67
$GPVHW,259.7,T,256.7,M,,N,,K*4D
$GPROT,36.9,A*0D
$PARLISS,32F55,3,0A,0,116,0,0,0,0,0,0,0,11E,1C7,116,0*73
$PARLISS,32F55,4,0A,0,12,0,0,0,0,0,0,0,3,15,15,0,C,0,0*2B
$PARLISS,32F55,5,0A,0,0,0,0,0,0,0,0,0,0,0,0,0,0,0,0,0,0*69
$GPHDT,260.5,T*34
$GPVTG,258.9,T,255.9,M,9.2,N,17.0,K*7E
$GPZDA,154729,22,11,2018,00,00*4F
$GPGGA,154729,5742.1572,N,01156.2598,E,1,10,1.4,39,M,,M,,*70
$GPGLL,5742.1572,N,01156.2598,E,154729,A*26
$GPVBW,,,V,9.2,-0.3,A*66
$GPVHW,260.8,T,257.8,M,,N,,K*46
$GPROT,49.7,A*0B
$PARLISS,32F55,3,0A,0,116,0,0,0,0,0,0,0,11E,1C7,116,0*73
$PARLISS,32F55,4,0A,0,12,0,0,0,0,0,0,0,3,15,15,0,C,0,0*2B
$PARLISS,32F55,5,0A,0,0,0,0,0,0,0,0,0,0,0,0,0,0,0,0,0,0*69
$GPHDT,261.4,T*34
$GPVTG,259.2,T,256.2,M,9.2,N,17.0,K*7C
$GPZDA,154730,22,11,2018,00,00*47
$GPGGA,154730,5742.1568,N,01156.2551,E,1,10,1.4,39,M,,M,,*76
$GPGLL,5742.1568,N,01156.2551,E,154730,A*20
$GPVBW,,,V,9.2,-0.4,A*61
$GPVHW,261.5,T,258.5,M,,N,,K*48
$PARLICI,1,10*7C
$GPROT,58.1,A*0D
$PARLISS,32F55,3,0A,0,116,0,0,0,0,0,0,0,11E,1D9,116,0*7A
$PARLISS,32F55,4,0A,0,12,0,0,0,0,0,0,0,3,16,15,0,C,0,0*28
$PARLISS,32F55,5,0A,0,0,0,0,0,0,0,0,0,0,0,0,0,0,0,0,0,0*69
$GPHDT,261.8,T*38
$GPVTG,259.7,T,256.7,M,9.3,N,17.2,K*7F
$GPZDA,154731,22,11,2018,00,00*46
$GPGGA,154731,5742.1564,N,01156.2503,E,1,10,1.4,39,M,,M,,*7C
$GPGLL,5742.1564,N,01156.2503,E,154731,A*2A
$GPVBW,,,V,9.3,-0.4,A*60
$GPVHW,262.0,T,259.0,M,,N,,K*4A
$GPROT,53.0,A*07
$PARLISS,32F55,3,0A,0,116,0,0,0,0,0,0,0,11E,1C7,116,0*73
$PARLISS,32F55,4,0A,0,12,0,0,0,0,0,0,0,3,15,15,0,C,0,0*2B
$PARLISS,32F55,5,0A,0,0,0,0,0,0,0,0,0,0,0,0,0,0,0,0,0,0*69
$GPHDT,262.0,T*33
$GPVTG,260.0,T,257.0,M,9.3,N,17.2,K*74
$GPZDA,154732,22,11,2018,00,00*45
$GPGGA,154732,5742.1560,N,01156.2456,E,1,10,1.4,39,M,,M,,*7A
$GPGLL,5742.1560,N,01156.2456,E,154732,A*2C
$GPVBW,,,V,9.3,-0.3,A*67
$GPVHW,261.9,T,258.9,M,,N,,K*48
$GPROT,42.0,A*07
$PARLISS,32F55,3,0A,0,116,0,0,0,0,0,0,0,11E,1C7,116,0*73
$PARLISS,32F55,4,0A,0,12,0,0,0,0,0,0,0,3,15,15,0,C,0,0*2B
$PARLISS,32F55,5,0A,0,0,0,0,0,0,0,0,0,0,0,0,0,0,0,0,0,0*69
$GPHDT,261.5,T*35
$GPVTG,260.6,T,257.6,M,9.3,N,17.2,K*74
$GPZDA,154733,22,11,2018,00,00*44
$GPGGA,154733,5742.1557,N,01156.2407,E,1,10,1.4,39,M,,M,,*7B
$GPGLL,5742.1557,N,01156.2407,E,154733,A*2D
$GPVBW,,,V,9.3,-0.1,A*65
$GPVHW,261.3,T,258.3,M,,N,,K*48
$PARLICI,1,10*7C
$GPROT,22.7,A*06
$PARLISS,32F55,3,0A,0,116,0,0,0,0,0,0,0,11E,1D9,116,0*7A
$PARLISS,32F55,4,0A,0,12,0,0,0,0,0,0,0,3,16,15,0,C,0,0*28
$PARLISS,32F55,5,0A,0,0,0,0,0,0,0,0,0,0,0,0,0,0,0,0,0,0*69
$GPHDT,260.8,T*39
$GPVTG,261.2,T,258.2,M,9.3,N,17.2,K*7A
$GPZDA,154734,22,11,2018,00,00*43
$GPGGA,154734,5742.1554,N,01156.2359,E,1,10,1.4,39,M,,M,,*73
$GPGLL,5742.1554,N,01156.2359,E,154734,A*25
$GPVBW,,,V,9.3,0.1,A*48
$GPVHW,260.5,T,257.5,M,,N,,K*46
$GPROT,-1.5,A*18
$PARLISS,32F55,3,0A,0,115,0,0,0,0,0,0,0,11D,1C6,115,0*73
$PARLISS,32F55,4,0A,0,12,0,0,0,0,0,0,0,3,14,14,0,C,0,0*2B
$PARLISS,32F55,5,0A,0,0,0,0,0,0,0,0,0,0,0,0,0,0,0,0,0,0*69
$GPHDT,259.8,T*33
$GPVTG,261.4,T,258.4,M,9.3,N,17.2,K*7A
$GPZDA,154735,22,11,2018,00,00*42
$GPGGA,154735,5742.1551,N,01156.2311,E,1,10,1.4,39,M,,M,,*7B
$GPGLL,5742.1551,N,01156.2311,E,154735,A*2D
$GPVBW,,,V,9.3,0.3,A*4A
$GPVHW,259.6,T,256.6,M,,N,,K*4D
$GPROT,-21.6,A*29
$PARLISS,32F55,3,0A,0,116,0,0,0,0,0,0,0,11E,1C7,116,0*73
$PARLISS,32F55,4,0A,0,12,0,0,0,0,0,0,0,3,14,14,0,C,0,0*2B
$PARLISS,32F55,5,0A,0,0,0,0,0,0,0,0,0,0,0,0,0,0,0,0,0,0*69
$GPHDT,259.2,T*39
$GPVTG,261.7,T,258.7,M,9.3,N,17.2,K*7A
$GPZDA,154736,22,11,2018,00,00*41
$GPGGA,154736,5742.1548,N,01156.2263,E,1,10,1.4,39,M,,M,,*74
$GPGLL,5742.1548,N,01156.2263,E,154736,A*22
$GPVBW,,,V,9.3,0.4,A*4D
$GPVHW,259.1,T,256.1,M,,N,,K*4D
$PARLICI,1,10*7C
$GPROT,-34.5,A*2E
$PARLISS,32F55,3,0A,0,116,0,0,0,0,0,0,0,11E,1D9,116,0*7A
$PARLISS,32F55,4,0A,0,12,0,0,0,0,0,0,0,3,14,14,0,C,0,0*2B
$PARLISS,32F55,5,0A,0,0,0,0,0,0,0,0,0,0,0,0,0,0,0,0,0,0*69
$GPHDT,259.2,T*39
$GPVTG,261.8,T,258.8,M,9.3,N,17.2,K*7A
$GPZDA,154737,22,11,2018,00,00*40
$GPGGA,154737,5742.1544,N,01156.2216,E,1,10,1.4,39,M,,M,,*7B
$GPGLL,5742.1544,N,01156.2216,E,154737,A*2D
$GPVBW,,,V,9.3,0.4,A*4D
$GPVHW,259.3,T,256.3,M,,N,,K*4D
$GPROT,-31.7,A*29
$PARLISS,32F55,3,0A,0,116,0,0,0,0,0,0,0,11E,1C7,116,0*73
$PARLISS,32F55,4,0A,0,12,0,0,0,0,0,0,0,3,14,14,0,C,0,0*2B
$PARLISS,32F55,5,0A,0,0,0,0,0,0,0,0,0,0,0,0,0,0,0,0,0,0*69
$GPHDT,259.5,T*3E
$GPVTG,261.6,T,258.6,M,9.3,N,17.2,K*7A
$GPZDA,154738,22,11,2018,00,00*4F
$GPGGA,154738,5742.1540,N,01156.2168,E,1,10,1.4,39,M,,M,,*7A
$GPGLL,5742.1540,N,01156.2168,E,154738,A*2C
$GPVBW,,,V,9.3,0.3,A*4A
$GPVHW,259.8,T,256.8,M,,N,,K*4D
$GPROT,-15.4,A*2C
$PARLISS,32F55,3,0A,0,116,0,0,0,0,0,0,0,11E,1C7,116,0*73
$PARLISS,32F55,4,0A,0,12,0,0,0,0,0,0,0,3,14,14,0,C,0,0*2B
$PARLISS,32F55,5,0A,0,0,0,0,0,0,0,0,0,0,0,0,0,0,0,0,0,0*69
$GPHDT,260.1,T*30
$GPVTG,261.6,T,258.6,M,9.3,N,17.2,K*7A
$GPZDA,154739,22,11,2018,00,00*4E
$GPGGA,154739,5742.1536,N,01156.2121,E,1,10,1.4,39,M,,M,,*77
$GPGLL,5742.1536,N,01156.2121,E,154739,A*21
$GPVBW,,,V,9.3,0.2,A*4B
$GPVHW,260.3,T,257.3,M,,N,,K*46
$PARLICI,1,10*7C
$GPROT,3.0,A*32
$PARLISS,32F55,3,0A,0,114,0,0,0,0,0,0,0,11C,1D7,114,0*72
$PARLISS,32F55,4,0A,0,12,0,0,0,0,0,0,0,3,14,14,0,C,0,0*2B
$PARLISS,32F55,5,0A,0,0,0,0,0,0,0,0,0,0,0,0,0,0,0,0,0,0*69
$GPHDT,261.1,T*31
$GPVTG,261.6,T,258.6,M,9.3,N,17.2,K*7A
$GPZDA,154740,22,11,2018,00,00*40
$GPGGA,154740,5742.1532,N,01156.2073,E,1,10,1.4,39,M,,M,,*7B
$GPGLL,5742.1532,N,01156.2073,E,154740,A*2D
$GPVBW,,,V,9.3,0.0,A*49
$GPVHW,261.4,T,258.4,M,,N,,K*48
$GPROT,19.2,A*0B
$PARLISS,32F55,3,0A,0,115,0,0,0,0,0,0,0,11D,1C6,115,0*73
$PARLISS,32F55,4,0A,0,12,0,0,0,0,0,0,0,3,14,14,0,C,0,0*2B
$PARLISS,32F55,5,0A,0,0,0,0,0,0,0,0,0,0,0,0,0,0,0,0,0,0*69
$GPHDT,261.9,T*39
$GPVTG,261.6,T,258.6,M,9.3,N,17.2,K*7A
$GPZDA,154741,22,11,2018,00,00*41
$GPGGA,154741,5742.1528,N,01156.2025,E,1,10,1.4,39,M,,M,,*72
$GPGLL,5742.1528,N,01156.2025,E,154741,A*24
$GPVBW,,,V,9.3,-0.1,A*65
$GPVHW,262.1,T,259.1,M,,N,,K*4A
$GPROT,34.9,A*0F
$PARLISS,32F55,3,0A,0,116,0,0,0,0,0,0,0,11E,1C7,116,0*73
$PARLISS,32F55,4,0A,0,12,0,0,0,0,0,0,0,3,15,15,0,C,0,0*2B
$PARLISS,32F55,5,0A,0,0,0,0,0,0,0,0,0,0,0,0,0,0,0,0,0,0*69
$GPHDT,262.4,T*37
$GPVTG,261.9,T,258.9,M,9.3,N,17.2,K*7A
$GPZDA,154742,22,11,2018,00,00*42
$GPGGA,154742,5742.1525,N,01156.1977,E,1,10,1.4,39,M,,M,,*71
$GPGLL,5742.1525,N,01156.1977,E,154742,A*27
$GPVBW,,,V,9.3,-0.1,A*65
$GPVHW,262.3,T,259.3,M,,N,,K*4A
$PARLICI,1,10*7C
$GPROT,39.7,A*0C
$PARLISS,32F55,3,0A,0,116,0,0,0,0,0,0,0,11E,1D9,116,0*7A
$PARLISS,32F55,4,0A,0,12,0,0,0,0,0,0,0,3,15,15,0,C,0,0*2B
$PARLISS,32F55,5,0A,0,0,0,0,0,0,0,0,0,0,0,0,0,0,0,0,0,0*69
$GPHDT,262.4,T*37
$GPVTG,262.2,T,259.2,M,9.3,N,17.2,K*78
$GPZDA,154743,22,11,2018,00,00*43
$GPGGA,154743,5742.1522,N,01156.1929,E,1,10,1.4,39,M,,M,,*7C
$GPGLL,5742.1522,N,01156.1929,E,154743,A*2A
$GPVBW,,,V,9.3,0.0,A*49
$GPVHW,262.3,T,259.3,M,,N,,K*4A
$GPROT,30.3,A*01
$PARLISS,32F55,3,0A,0,115,0,0,0,0,0,0,0,11D,1C6,115,0*73
$PARLISS,32F55,4,0A,0,12,0,0,0,0,0,0,0,3,15,14,0,C,0,0*2A
$PARLISS,32F55,5,0A,0,0,0,0,0,0,0,0,0,0,0,0,0,0,0,0,0,0*69
$GPHDT,262.0,T*33
$GPVTG,262.5,T,259.5,M,9.3,N,17.2,K*78
$GPZDA,154744,22,11,2018,00,00*44
$GPGGA,154744,5742.1520,N,01156.1882,E,1,10,1.4,39,M,,M,,*79
$GPGLL,5742.1520,N,01156.1882,E,154744,A*2F
$GPVBW,,,V,9.3,0.1,A*48
$GPVHW,261.9,T,258.9,M,,N,,K*48
$GPROT,15.6,A*03
$PARLISS,32F55,3,0A,0,115,0,0,0,0,0,0,0,11D,1C6,115,0*73
$PARLISS,32F55,4,0A,0,12,0,0,0,0,0,0,0,3,14,14,0,C,0,0*2B
$PARLISS,32F55,5,0A,0,0,0,0,0,0,0,0,0,0,0,0,0,0,0,0,0,0*69
$GPHDT,261.4,T*34
$GPVTG,262.8,T,259.8,M,9.3,N,17.2,K*78
$GPZDA,154745,22,11,2018,00,00*45
$GPGGA,154745,5742.1517,N,01156.1834,E,1,10,1.4,39,M,,M,,*71
$GPGLL,5742.1517,N,01156.1834,E,154745,A*27
$GPVBW,,,V,9.3,0.3,A*4A
$GPVHW,261.2,T,258.2,M,,N,,K*48
$PARLICI,1,10*7C
$GPROT,-1.8,A*15
$PARLISS,32F55,3,0A,0,115,0,0,0,0,0,0,0,11D,1D8,115,0*7A
$PARLISS,32F55,4,0A,0,12,0,0,0,0,0,0,0,3,14,14,0,C,0,0*2B
$PARLISS,32F55,5,0A,0,0,0,0,0,0,0,0,0,0,0,0,0,0,0,0,0,0*69
$GPHDT,261.1,T*31
$GPVTG,263.0,T,260.0,M,9.3,N,17.2,K*73
$GPZDA,154746,22,11,2018,00,00*46
$GPGGA,154746,5742.1514,N,01156.1785,E,1,10,1.4,39,M,,M,,*74
$GPGLL,5742.1514,N,01156.1785,E,154746,A*22
$GPVBW,,,V,9.3,0.3,A*4A
$GPVHW,261.0,T,258.0,M,,N,,K*48
$GPROT,-15.0,A*28
$PARLISS,32F55,3,0A,0,116,0,0,0,0,0,0,0,11E,1C7,116,0*73
$PARLISS,32F55,4,0A,0,12,0,0,0,0,0,0,0,3,15,14,0,C,0,0*2A
$PARLISS,32F55,5,0A,0,0,0,0,0,0,0,0,0,0,0,0,0,0,0,0,0,0*69
$GPHDT,261.0,T*30
$GPVTG,263.1,T,260.1,M,9.3,N,17.2,K*73
$GPZDA,154747,22,11,2018,00,00*47
$GPGGA,154747,5742.1511,N,01156.1737,E,1,10,1.4,39,M,,M,,*79
$GPGLL,5742.1511,N,01156.1737,E,154747,A*2F
$GPVBW,,,V,9.3,0.3,A*4A
$GPVHW,261.1,T,258.1,M,,N,,K*48
$GPROT,-16.2,A*29
$PARLISS,32F55,3,0A,0,116,0,0,0,0,0,0,0,11E,1C7,116,0*73
$PARLISS,32F55,4,0A,0,12,0,0,0,0,0,0,0,3,14,14,0,C,0,0*2B
$PARLISS,32F55,5,0A,0,0,0,0,0,0,0,0,0,0,0,0,0,0,0,0,0,0*69
$GPHDT,261.3,T*33
$GPVTG,263.0,T,260.0,M,9.3,N,17.2,K*73
$GPZDA,154748,22,11,2018,00,00*48
$GPGGA,154748,5742.1508,N,01156.1689,E,1,10,1.4,39,M,,M,,*7A
$GPGLL,5742.1508,N,01156.1689,E,154748,A*2C
$GPVBW,,,V,9.3,0.3,A*4A
$GPVHW,261.3,T,258.3,M,,N,,K*48
$PARLICI,1,10*7C
$GPROT,-7.4,A*1F
$PARLISS,32F55,3,0A,0,115,0,0,0,0,0,0,0,11D,1D8,115,0*7A
$PARLISS,32F55,4,0A,0,12,0,0,0,0,0,0,0,3,14,14,0,C,0,0*2B
$PARLISS,32F55,5,0A,0,0,0,0,0,0,0,0,0,0,0,0,0,0,0,0,0,0*69
$GPHDT,261.8,T*38
$GPVTG,262.9,T,259.9,M,9.3,N,17.2,K*78
$GPZDA,154749,22,11,2018,00,00*49
$GPGGA,154749,5742.1505,N,01156.1641,E,1,10,1.4,39,M,,M,,*72
$GPGLL,5742.1505,N,01156.1641,E,154749,A*24
$GPVBW,,,V,9.3,0.2,A*4B
$GPVHW,261.9,T,258.9,M,,N,,K*48
$GPROT,2.8,A*3B
$PARLISS,32F55,3,0A,0,114,0,0,0,0,0,0,0,11C,1C5,114,0*77
$PARLISS,32F55,4,0A,0,12,0,0,0,0,0,0,0,3,14,14,0,C,0,0*2B
$PARLISS,32F55,5,0A,0,0,0,0,0,0,0,0,0,0,0,0,0,0,0,0,0,0*69
$GPHDT,262.1,T*32
$GPVTG,262.9,T,259.9,M,9.4,N,17.4,K*79
$GPZDA,154750,22,11,2018,00,00*41
$GPGGA,154750,5742.1501,N,01156.1592,E,1,10,1.4,39,M,,M,,*73
$GPGLL,5742.1501,N,01156.1592,E,154750,A*25
$GPVBW,,,V,9.4,0.1,A*4F
$GPVHW,262.1,T,259.1,M,,N,,K*4A
$GPROT,12.7,A*05
$PARLISS,32F55,3,0A,0,115,0,0,0,0,0,0,0,11D,1C6,115,0*73
$PARLISS,32F55,4,0A,0,12,0,0,0,0,0,0,0,3,14,14,0,C,0,0*2B
$PARLISS,32F55,5,0A,0,0,0,0,0,0,0,0,0,0,0,0,0,0,0,0,0,0*69
$GPHDT,261.8,T*38
$GPVTG,262.9,T,259.9,M,9.3,N,17.2,K*78
$GPZDA,154751,22,11,2018,00,00*40
$GPGGA,154751,5742.1498,N,01156.1545,E,1,10,1.4,39,M,,M,,*79
$GPGLL,5742.1498,N,01156.1545,E,154751,A*2F
$GPVBW,,,V,9.3,0.2,A*4B
$GPVHW,261.7,T,258.7,M,,N,,K*48
$PARLICI,1,10*7C
$GPROT,13.3,A*00
$PARLISS,32F55,3,0A,0,115,0,0,0,0,0,0,0,11D,1D8,115,0*7A
$PARLISS,32F55,4,0A,0,12,0,0,0,0,0,0,0,3,14,14,0,C,0,0*2B
$PARLISS,32F55,5,0A,0,0,0,0,0,0,0,0,0,0,0,0,0,0,0,0,0,0*69
$GPHDT,261.2,T*32
$GPVTG,263.0,T,260.0,M,9.3,N,17.2,K*73
$GPZDA,154752,22,11,2018,00,00*43
$GPGGA,154752,5742.1495,N,01156.1497,E,1,10,1.4,39,M,,M,,*79
$GPGLL,5742.1495,N,01156.1497,E,154752,A*2F
$GPVBW,,,V,9.3,0.3,A*4A
$GPVHW,260.9,T,257.9,M,,N,,K*46
$GPROT,0.0,A*31
$PARLISS,32F55,3,0A,0,114,0,0,0,0,0,0,0,11C,1C5,114,0*77
$PARLISS,32F55,4,0A,0,12,0,0,0,0,0,0,0,3,14,14,0,C,0,0*2B
$PARLISS,32F55,5,0A,0,0,0,0,0,0,0,0,0,0,0,0,0,0,0,0,0,0*69
$GPHDT,260.3,T*32
$GPVTG,263.0,T,260.0,M,9.3,N,17.2,K*73
$GPZDA,154753,22,11,2018,00,00*42
$GPGGA,154753,5742.1492,N,01156.1448,E,1,10,1.4,39,M,,M,,*7D
$GPGLL,5742.1492,N,01156.1448,E,154753,A*2B
$GPVBW,,,V,9.3,0.5,A*4C
$GPVHW,259.9,T,256.9,M,,N,,K*4D
$GPROT,-19.6,A*22
$PARLISS,32F55,3,0A,0,116,0,0,0,0,0,0,0,11E,1C7,116,0*73
$PARLISS,32F55,4,0A,0,12,0,0,0,0,0,0,0,3,14,14,0,C,0,0*2B
$PARLISS,32F55,5,0A,0,0,0,0,0,0,0,0,0,0,0,0,0,0,0,0,0,0*69
$GPHDT,259.0,T*3B
$GPVTG,263.1,T,260.1,M,9.3,N,17.2,K*73
$GPZDA,154754,22,11,2018,00,00*45
$GPGGA,154754,5742.1489,N,01156.1402,E,1,10,1.4,39,M,,M,,*7E
$GPGLL,5742.1489,N,01156.1402,E,154754,A*28
$GPVBW,,,V,9.3,0.7,A*4E
$GPVHW,258.8,T,255.8,M,,N,,K*4F
$PARLICI,1,10*7C
$GPROT,-37.6,A*2E
$PARLISS,32F55,3,0A,0,116,0,0,0,0,0,0,0,11E,1D9,116,0*7A
$PARLISS,32F55,4,0A,0,12,0,0,0,0,0,0,0,3,14,14,0,C,0,0*2B
$PARLISS,32F55,5,0A,0,0,0,0,0,0,0,0,0,0,0,0,0,0,0,0,0,0*69
$GPHDT,258.1,T*3B
$GPVTG,263.0,T,260.0,M,9.3,N,17.2,K*73
$GPZDA,154755,22,11,2018,00,00*44
$GPGGA,154755,5742.1485,N,01156.1354,E,1,10,1.4,39,M,,M,,*77
$GPGLL,5742.1485,N,01156.1354,E,154755,A*21
$GPVBW,,,V,9.3,0.8,A*41
$GPVHW,257.9,T,254.9,M,,N,,K*41
$GPROT,-48.4,A*24
$PARLISS,32F55,3,0A,0,116,0,0,0,0,0,0,0,11E,1C7,116,0*73
$PARLISS,32F55,4,0A,0,12,0,0,0,0,0,0,0,3,14,14,0,C,0,0*2B
$PARLISS,32F55,5,0A,0,0,0,0,0,0,0,0,0,0,0,0,0,0,0,0,0,0*69
$GPHDT,257.5,T*30
$GPVTG,262.6,T,259.6,M,9.3,N,17.2,K*78
$GPZDA,154756,22,11,2018,00,00*47
$GPGGA,154756,5742.1481,N,01156.1307,E,1,10,1.4,39,M,,M,,*76
$GPGLL,5742.1481,N,01156.1307,E,154756,A*20
$GPVBW,,,V,9.3,0.8,A*41
$GPVHW,257.3,T,254.3,M,,N,,K*41
$GPROT,-49.7,A*26
$PARLISS,32F55,3,0A,0,116,0,0,0,0,0,0,0,11E,1C7,116,0*73
$PARLISS,32F55,4,0A,0,12,0,0,0,0,0,0,0,3,15,14,0,C,0,0*2A
$PARLISS,32F55,5,0A,0,0,0,0,0,0,0,0,0,0,0,0,0,0,0,0,0,0*69
$GPHDT,257.1,T*34
$GPVTG,262.2,T,259.2,M,9.3,N,17.2,K*78
$GPZDA,154757,22,11,2018,00,00*46
$GPGGA,154757,5742.1477,N,01156.1260,E,1,10,1.4,39,M,,M,,*7E
$GPGLL,5742.1477,N,01156.1260,E,154757,A*28
$GPVBW,,,V,9.3,0.8,A*41
$GPVHW,257.0,T,254.0,M,,N,,K*41
$PARLICI,1,10*7C
$GPROT,-44.5,A*29
$PARLISS,32F55,3,0A,0,116,0,0,0,0,0,0,0,11E,1D9,116,0*7A
$PARLISS,32F55,4,0A,0,12,0,0,0,0,0,0,0,3,14,14,0,C,0,0*2B
$PARLISS,32F55,5,0A,0,0,0,0,0,0,0,0,0,0,0,0,0,0,0,0,0,0*69
$GPHDT,257.0,T*35
$GPVTG,261.9,T,258.9,M,9.3,N,17.2,K*7A
$GPZDA,154758,22,11,2018,00,00*49
$GPGGA,154758,5742.1472,N,01156.1212,E,1,10,1.4,39,M,,M,,*71
$GPGLL,5742.1472,N,01156.1212,E,154758,A*27
$GPVBW,,,V,9.3,0.8,A*41
$GPVHW,257.0,T,254.0,M,,N,,K*41
$GPROT,-34.0,A*2B
$PARLISS,32F55,3,0A,0,116,0,0,0,0,0,0,0,11E,1C7,116,0*73
$PARLISS,32F55,4,0A,0,12,0,0,0,0,0,0,0,3,14,14,0,C,0,0*2B
$PARLISS,32F55,5,0A,0,0,0,0,0,0,0,0,0,0,0,0,0,0,0,0,0,0*69
$GPHDT,257.3,T*36
$GPVTG,261.4,T,258.4,M,9.3,N,17.2,K*7A
$GPZDA,154759,22,11,2018,00,00*48
$GPGGA,154759,5742.1467,N,01156.1166,E,1,10,1.4,39,M,,M,,*74
$GPGLL,5742.1467,N,01156.1166,E,154759,A*22
$GPVBW,,,V,9.3,0.6,A*4F
$GPVHW,257.5,T,254.5,M,,N,,K*41
$GPROT,-19.3,A*27
$PARLISS,32F55,3,0A,0,116,0,0,0,0,0,0,0,11E,1C7,116,0*73
$PARLISS,32F55,4,0A,0,12,0,0,0,0,0,0,0,3,15,14,0,C,0,0*2A
$PARLISS,32F55,5,0A,0,0,0,0,0,0,0,0,0,0,0,0,0,0,0,0,0,0*69
$GPHDT,258.0,T*3A
$GPVTG,260.9,T,257.9,M,9.3,N,17.2,K*74
$GPZDA,154800,22,11,2018,00,00*4B
$GPGGA,154800,5742.1462,N,01156.1119,E,1,10,1.4,39,M,,M,,*7A
$GPGLL,5742.1462,N,01156.1119,E,154800,A*2C
$GPVBW,,,V,9.3,0.4,A*4D
$GPVHW,258.4,T,255.4,M,,N,,K*4F
$PARLICI,1,10*7C
$GPROT,0.0,A*31
$PARLISS,32F55,3,0A,0,114,0,0,0,0,0,0,0,11C,1D7,114,0*72
$PARLISS,32F55,4,0A,0,12,0,0,0,0,0,0,0,3,14,14,0,C,0,0*2B
$PARLISS,32F55,5,0A,0,0,0,0,0,0,0,0,0,0,0,0,0,0,0,0,0,0*69
$GPHDT,259.2,T*39
$GPVTG,260.6,T,257.6,M,9.3,N,17.2,K*74
$GPZDA,154801,22,11,2018,00,00*4A
$GPGGA,154801,5742.1457,N,01156.1072,E,1,10,1.4,39,M,,M,,*71
$GPGLL,5742.1457,N,01156.1072,E,154801,A*27
$GPVBW,,,V,9.3,0.1,A*48
$GPVHW,259.6,T,256.6,M,,N,,K*4D
$GPROT,22.8,A*09
$PARLISS,32F55,3,0A,0,115,0,0,0,0,0,0,0,11D,1C6,115,0*73
$PARLISS,32F55,4,0A,0,12,0,0,0,0,0,0,0,3,14,14,0,C,0,0*2B
$PARLISS,32F55,5,0A,0,0,0,0,0,0,0,0,0,0,0,0,0,0,0,0,0,0*69
$GPHDT,260.2,T*33
$GPVTG,260.4,T,257.4,M,9.3,N,17.2,K*74
$GPZDA,154802,22,11,2018,00,00*49
$GPGGA,154802,5742.1452,N,01156.1025,E,1,10,1.4,39,M,,M,,*75
$GPGLL,5742.1452,N,01156.1025,E,154802,A*23
$GPVBW,,,V,9.3,0.0,A*49
$GPVHW,260.4,T,257.4,M,,N,,K*46
$GPROT,40.7,A*02
$PARLISS,32F55,3,0A,0,115,0,0,0,0,0,0,0,11D,1C6,115,0*73
$PARLISS,32F55,4,0A,0,12,0,0,0,0,0,0,0,3,15,14,0,C,0,0*2A
$PARLISS,32F55,5,0A,0,0,0,0,0,0,0,0,0,0,0,0,0,0,0,0,0,0*69
$GPHDT,260.7,T*36
$GPVTG,260.4,T,257.4,M,9.3,N,17.2,K*74
$GPZDA,154803,22,11,2018,00,00*48
$GPGGA,154803,5742.1447,N,01156.0978,E,1,10,1.4,39,M,,M,,*70
$GPGLL,5742.1447,N,01156.0978,E,154803,A*26
$GPVBW,,,V,9.3,-0.1,A*65
$GPVHW,260.7,T,257.7,M,,N,,K*46
$PARLICI,1,10*7C
$GPROT,44.1,A*00
$PARLISS,32F55,3,0A,0,116,0,0,0,0,0,0,0,11E,1D9,116,0*7A
$PARLISS,32F55,4,0A,0,12,0,0,0,0,0,0,0,3,15,15,0,C,0,0*2B
$PARLISS,32F55,5,0A,0,0,0,0,0,0,0,0,0,0,0,0,0,0,0,0,0,0*69
$GPHDT,260.6,T*37
$GPVTG,260.6,T,257.6,M,9.3,N,17.2,K*74
$GPZDA,154804,22,11,2018,00,00*4F
$GPGGA,154804,5742.1444,N,01156.0930,E,1,10,1.4,38,M,,M,,*79
$GPGLL,5742.1444,N,01156.0930,E,154804,A*2E
$GPVBW,,,V,9.3,0.0,A*49
$GPVHW,260.7,T,257.7,M,,N,,K*46
$GPROT,33.6,A*07
$PARLISS,32F55,3,0A,0,115,0,0,0,0,0,0,0,11D,1C6,115,0*73
$PARLISS,32F55,4,0A,0,12,0,0,0,0,0,0,0,3,14,14,0,C,0,0*2B
$PARLISS,32F55,5,0A,0,0,0,0,0,0,0,0,0,0,0,0,0,0,0,0,0,0*69
$GPHDT,260.5,T*34
$GPVTG,260.8,T,257.8,M,9.3,N,17.2,K*74
$GPZDA,154805,22,11,2018,00,00*4E
$GPGGA,154805,5742.1440,N,01156.0882,E,1,10,1.4,38,M,,M,,*74
$GPGLL,5742.1440,N,01156.0882,E,154805,A*23
$GPVBW,,,V,9.3,0.0,A*49
$GPVHW,260.4,T,257.4,M,,N,,K*46
$GPROT,19.4,A*0D
$PARLISS,32F55,3,0A,0,115,0,0,0,0,0,0,0,11D,1C6,115,0*73
$PARLISS,32F55,4,0A,0,12,0,0,0,0,0,0,0,3,14,14,0,C,0,0*2B
$PARLISS,32F55,5,0A,0,0,0,0,0,0,0,0,0,0,0,0,0,0,0,0,0,0*69
$GPHDT,260.3,T*32
$GPVTG,261.0,T,258.0,M,9.3,N,17.2,K*7A
$GPZDA,154806,22,11,2018,00,00*4D
$GPGGA,154806,5742.1436,N,01156.0833,E,1,10,1.4,38,M,,M,,*7C
$GPGLL,5742.1436,N,01156.0833,E,154806,A*2B
$GPVBW,,,V,9.3,0.1,A*48
$GPVHW,260.3,T,257.3,M,,N,,K*46
$PARLICI,1,10*7C
$GPROT,6.5,A*32
$PARLISS,32F55,3,0A,0,114,0,0,0,0,0,0,0,11C,1D7,114,0*72
$PARLISS,32F55,4,0A,0,12,0,0,0,0,0,0,0,3,15,14,0,C,0,0*2A
$PARLISS,32F55,5,0A,0,0,0,0,0,0,0,0,0,0,0,0,0,0,0,0,0,0*69
$GPHDT,260.2,T*33
$GPVTG,261.1,T,258.1,M,9.3,N,17.2,K*7A
$GPZDA,154807,22,11,2018,00,00*4C
$GPGGA,154807,5742.1433,N,01156.0786,E,1,10,1.4,38,M,,M,,*79
$GPGLL,5742.1433,N,01156.0786,E,154807,A*2E
$GPVBW,,,V,9.3,0.1,A*48
$GPVHW,260.2,T,257.2,M,,N,,K*46
$GPROT,-1.1,A*1C
$PARLISS,32F55,3,0A,0,115,0,0,0,0,0,0,0,11D,1C6,115,0*73
$PARLISS,32F55,4,0A,0,12,0,0,0,0,0,0,0,3,14,14,0,C,0,0*2B
$PARLISS,32F55,5,0A,0,0,0,0,0,0,0,0,0,0,0,0,0,0,0,0,0,0*69
$GPHDT,259.9,T*32
$GPVTG,261.3,T,258.3,M,9.3,N,17.2,K*7A
$GPZDA,154808,22,11,2018,00,00*43
$GPGGA,154808,5742.1429,N,01156.0738,E,1,10,1.4,38,M,,M,,*78
$GPGLL,5742.1429,N,01156.0738,E,154808,A*2F
$GPVBW,,,V,9.3,0.2,A*4B
$GPVHW,259.8,T,256.8,M,,N,,K*4D
$GPROT,-6.4,A*1E
$PARLISS,32F55,3,0A,0,115,0,0,0,0,0,0,0,11D,1C6,115,0*73
$PARLISS,32F55,4,0A,0,12,0,0,0,0,0,0,0,3,14,14,0,C,0,0*2B
$PARLISS,32F55,5,0A,0,0,0,0,0,0,0,0,0,0,0,0,0,0,0,0,0,0*69
$GPHDT,259.4,T*3F
$GPVTG,261.4,T,258.4,M,9.3,N,17.2,K*7A
$GPZDA,154809,22,11,2018,00,00*42
$GPGGA,154809,5742.1425,N,01156.0689,E,1,10,1.4,38,M,,M,,*7E
$GPGLL,5742.1425,N,01156.0689,E,154809,A*29
$GPVBW,,,V,9.3,0.4,A*4D
$GPVHW,259.2,T,256.2,M,,N,,K*4D
$PARLICI,1,10*7C
$GPROT,-12.5,A*2A
$PARLISS,32F55,3,0A,0,116,0,0,0,0,0,0,0,11E,1D9,116,0*7A
$PARLISS,32F55,4,0A,0,12,0,0,0,0,0,0,0,3,15,14,0,C,0,0*2A
$PARLISS,32F55,5,0A,0,0,0,0,0,0,0,0,0,0,0,0,0,0,0,0,0,0*69
$GPHDT,258.9,T*33
$GPVTG,261.4,T,258.4,M,9.3,N,17.2,K*7A
$GPZDA,154810,22,11,2018,00,00*4A
$GPGGA,154810,5742.1421,N,01156.0642,E,1,10,1.4,38,M,,M,,*75
$GPGLL,5742.1421,N,01156.0642,E,154810,A*22
$GPVBW,,,V,9.3,0.4,A*4D
$GPVHW,258.7,T,255.7,M,,N,,K*4F
$GPROT,-20.2,A*2C
$PARLISS,32F55,3,0A,0,116,0,0,0,0,0,0,0,11E,1C7,116,0*73
$PARLISS,32F55,4,0A,0,12,0,0,0,0,0,0,0,3,14,14,0,C,0,0*2B
$PARLISS,32F55,5,0A,0,0,0,0,0,0,0,0,0,0,0,0,0,0,0,0,0,0*69
$GPHDT,257.9,T*3C
$GPVTG,261.3,T,258.3,M,9.4,N,17.4,K*7B
$GPZDA,154811,22,11,2018,00,00*4B
$GPGGA,154811,5742.1417,N,01156.0594,E,1,10,1.4,38,M,,M,,*79
$GPGLL,5742.1417,N,01156.0594,E,154811,A*2E
$GPVBW,,,V,9.3,0.6,A*4F
$GPVHW,257.5,T,254.5,M,,N,,K*41
$GPROT,-29.0,A*27
$PARLISS,32F55,3,0A,0,116,0,0,0,0,0,0,0,11E,1C7,116,0*73
$PARLISS,32F55,4,0A,0,12,0,0,0,0,0,0,0,3,14,14,0,C,0,0*2B
$PARLISS,32F55,5,0A,0,0,0,0,0,0,0,0,0,0,0,0,0,0,0,0,0,0*69
$GPHDT,256.8,T*3C
$GPVTG,261.3,T,258.3,M,9.4,N,17.4,K*7B
$GPZDA,154812,22,11,2018,00,00*48
$GPGGA,154812,5742.1413,N,01156.0545,E,1,10,1.4,38,M,,M,,*72
$GPGLL,5742.1413,N,01156.0545,E,154812,A*25
$GPVBW,,,V,9.4,0.8,A*46
$GPVHW,256.6,T,253.6,M,,N,,K*47
$PARLICI,1,10*7C
$GPROT,-43.7,A*2C
$PARLISS,32F55,3,0A,0,116,0,0,0,0,0,0,0,11E,1D9,116,0*7A
$PARLISS,32F55,4,0A,0,12,0,0,0,0,0,0,0,3,15,14,0,C,0,0*2A
$PARLISS,32F55,5,0A,0,0,0,0,0,0,0,0,0,0,0,0,0,0,0,0,0,0*69
$GPHDT,256.6,T*32
$GPVTG,261.0,T,258.0,M,9.4,N,17.4,K*7B
$GPZDA,154813,22,11,2018,00,00*49
$GPGGA,154813,5742.1408,N,01156.0498,E,1,10,1.4,38,M,,M,,*78
$GPGLL,5742.1408,N,01156.0498,E,154813,A*2F
$GPVBW,,,V,9.3,0.7,A*4E
$GPVHW,256.7,T,253.7,M,,N,,K*47
$GPROT,-44.1,A*2D
$PARLISS,32F55,3,0A,0,116,0,0,0,0,0,0,0,11E,1C7,116,0*73
$PARLISS,32F55,4,0A,0,12,0,0,0,0,0,0,0,3,14,14,0,C,0,0*2B
$PARLISS,32F55,5,0A,0,0,0,0,0,0,0,0,0,0,0,0,0,0,0,0,0,0*69
$GPHDT,256.6,T*32
$GPVTG,260.4,T,257.4,M,9.4,N,17.4,K*75
$GPZDA,154814,22,11,2018,00,00*4E
$GPGGA,154814,5742.1403,N,01156.0450,E,1,10,1.4,38,M,,M,,*70
$GPGLL,5742.1403,N,01156.0450,E,154814,A*27
$GPVBW,,,V,9.4,0.6,A*48
$GPVHW,256.6,T,253.6,M,,N,,K*47
$GPROT,-30.0,A*2F
$PARLISS,32F55,3,0A,0,116,0,0,0,0,0,0,0,11E,1C7,116,0*73
$PARLISS,32F55,4,0A,0,12,0,0,0,0,0,0,0,3,14,14,0,C,0,0*2B
$PARLISS,32F55,5,0A,0,0,0,0,0,0,0,0,0,0,0,0,0,0,0,0,0,0*69
$GPHDT,256.7,T*33
$GPVTG,260.4,T,257.4,M,9.4,N,17.4,K*75
$GPZDA,154815,22,11,2018,00,00*4F
$GPGGA,154815,5742.1398,N,01156.0402,E,1,10,1.4,38,M,,M,,*73
$GPGLL,5742.1398,N,01156.0402,E,154815,A*24
$GPVBW,,,V,9.4,0.6,A*48
$GPVHW,256.8,T,253.8,M,,N,,K*47
$PARLICI,1,10*7C
$GPROT,-16.8,A*23
$PARLISS,32F55,3,0A,0,116,0,0,0,0,0,0,0,11E,1D9,116,0*7A
$PARLISS,32F55,4,0A,0,12,0,0,0,0,0,0,0,3,15,14,0,C,0,0*2A
$PARLISS,32F55,5,0A,0,0,0,0,0,0,0,0,0,0,0,0,0,0,0,0,0,0*69
$GPHDT,257.2,T*37
$GPVTG,260.0,T,257.0,M,9.4,N,17.4,K*75
$GPZDA,154816,22,11,2018,00,00*4C
$GPGGA,154816,5742.1393,N,01156.0355,E,1,10,1.4,38,M,,M,,*7E
$GPGLL,5742.1393,N,01156.0355,E,154816,A*29
$GPVBW,,,V,9.4,0.4,A*4A
$GPVHW,257.5,T,254.5,M,,N,,K*41
$GPROT,-3.8,A*17
$PARLISS,32F55,3,0A,0,115,0,0,0,0,0,0,0,11D,1C6,115,0*73
$PARLISS,32F55,4,0A,0,12,0,0,0,0,0,0,0,3,14,14,0,C,0,0*2B
$PARLISS,32F55,5,0A,0,0,0,0,0,0,0,0,0,0,0,0,0,0,0,0,0,0*69
$GPHDT,257.8,T*3D
$GPVTG,259.5,T,256.5,M,9.4,N,17.4,K*7E
$GPZDA,154817,22,11,2018,00,00*4D
$GPGGA,154817,5742.1387,N,01156.0308,E,1,10,1.4,38,M,,M,,*72
$GPGLL,5742.1387,N,01156.0308,E,154817,A*25
$GPVBW,,,V,9.4,0.3,A*4D
$GPVHW,257.8,T,254.8,M,,N,,K*41
$GPROT,13.3,A*00
$PARLISS,32F55,3,0A,0,115,0,0,0,0,0,0,0,11D,1C6,115,0*73
$PARLISS,32F55,4,0A,0,12,0,0,0,0,0,0,0,3,14,14,0,C,0,0*2B
$PARLISS,32F55,5,0A,0,0,0,0,0,0,0,0,0,0,0,0,0,0,0,0,0,0*69
$GPHDT,258.2,T*38
$GPVTG,259.8,T,256.8,M,9.4,N,17.4,K*7E
$GPZDA,154818,22,11,2018,00,00*42
$GPGGA,154818,5742.1383,N,01156.0259,E,1,10,1.4,38,M,,M,,*7C
$GPGLL,5742.1383,N,01156.0259,E,154818,A*2B
$GPVBW,,,V,9.4,0.2,A*4C
$GPVHW,258.5,T,255.5,M,,N,,K*4F
$PARLICI,1,10*7C
$GPROT,19.7,A*0E
$PARLISS,32F55,3,0A,0,115,0,0,0,0,0,0,0,11D,1D8,115,0*7A
$PARLISS,32F55,4,0A,0,12,0,0,0,0,0,0,0,3,14,14,0,C,0,0*2B
$PARLISS,32F55,5,0A,0,0,0,0,0,0,0,0,0,0,0,0,0,0,0,0,0,0*69
$GPHDT,259.2,T*39
$GPVTG,259.6,T,256.6,M,9.4,N,17.4,K*7E
$GPZDA,154819,22,11,2018,00,00*43
$GPGGA,154819,5742.1378,N,01156.0212,E,1,10,1.4,38,M,,M,,*76
$GPGLL,5742.1378,N,01156.0212,E,154819,A*21
$GPVBW,,,V,9.4,0.0,A*4E
$GPVHW,259.5,T,256.5,M,,N,,K*4D
$GPROT,29.0,A*0A
$PARLISS,32F55,3,0A,0,115,0,0,0,0,0,0,0,11D,1C6,115,0*73
$PARLISS,32F55,4,0A,0,12,0,0,0,0,0,0,0,3,14,14,0,C,0,0*2B
$PARLISS,32F55,5,0A,0,0,0,0,0,0,0,0,0,0,0,0,0,0,0,0,0,0*69
$GPHDT,260.1,T*30
$GPVTG,259.5,T,256.5,M,9.3,N,17.2,K*7F
$GPZDA,154820,22,11,2018,00,00*49
$GPGGA,154820,5742.1373,N,01156.0165,E,1,10,1.4,38,M,,M,,*74
$GPGLL,5742.1373,N,01156.0165,E,154820,A*23
$GPVBW,,,V,9.3,-0.2,A*66
$GPVHW,260.3,T,257.3,M,,N,,K*46
$GPROT,39.3,A*08
$PARLISS,32F55,3,0A,0,116,0,0,0,0,0,0,0,11E,1C7,116,0*73
$PARLISS,32F55,4,0A,0,12,0,0,0,0,0,0,0,3,15,15,0,C,0,0*2B
$PARLISS,32F55,5,0A,0,0,0,0,0,0,0,0,0,0,0,0,0,0,0,0,0,0*69
$GPHDT,260.7,T*36
$GPVTG,259.9,T,256.9,M,9.3,N,17.2,K*7F
$GPZDA,154821,22,11,2018,00,00*48
$GPGGA,154821,5742.1369,N,01156.0118,E,1,10,1.4,38,M,,M,,*74
$GPGLL,5742.1369,N,01156.0118,E,154821,A*23
$GPVBW,,,V,9.3,-0.2,A*66
$GPVHW,260.9,T,257.9,M,,N,,K*46
$PARLICI,1,10*7C
$GPROT,43.2,A*04
$PARLISS,32F55,3,0A,0,116,0,0,0,0,0,0,0,11E,1D9,116,0*7A
$PARLISS,32F55,4,0A,0,12,0,0,0,0,0,0,0,3,15,15,0,C,0,0*2B
$PARLISS,32F55,5,0A,0,0,0,0,0,0,0,0,0,0,0,0,0,0,0,0,0,0*69
$GPHDT,261.6,T*36
$GPVTG,260.0,T,257.0,M,9.3,N,17.2,K*74
$GPZDA,154822,22,11,2018,00,00*4B
$GPGGA,154822,5742.1365,N,01156.0070,E,1,10,1.4,39,M,,M,,*75
$GPGLL,5742.1365,N,01156.0070,E,154822,A*23
$GPVBW,,,V,9.3,-0.3,A*67
$GPVHW,261.9,T,258.9,M,,N,,K*48
$GPROT,44.9,A*08
$PARLISS,32F55,3,0A,0,116,0,0,0,0,0,0,0,11E,1C7,116,0*73
$PARLISS,32F55,4,0A,0,12,0,0,0,0,0,0,0,3,16,15,0,C,0,0*28
$PARLISS,32F55,5,0A,0,0,0,0,0,0,0,0,0,0,0,0,0,0,0,0,0,0*69
$GPHDT,262.2,T*31
$GPVTG,260.2,T,257.2,M,9.3,N,17.2,K*74
$GPZDA,154823,22,11,2018,00,00*4A
$GPGGA,154823,5742.1362,N,01156.0023,E,1,10,1.4,39,M,,M,,*75
$GPGLL,5742.1362,N,01156.0023,E,154823,A*23
$GPVBW,,,V,9.3,-0.3,A*67
$GPVHW,262.2,T,259.2,M,,N,,K*4A
$GPROT,47.0,A*02
$PARLISS,32F55,3,0A,0,116,0,0,0,0,0,0,0,11E,1C7,116,0*73
$PARLISS,32F55,4,0A,0,12,0,0,0,0,0,0,0,3,15,15,0,C,0,0*2B
$PARLISS,32F55,5,0A,0,0,0,0,0,0,0,0,0,0,0,0,0,0,0,0,0,0*69
$GPHDT,262.1,T*32
$GPVTG,260.7,T,257.7,M,9.3,N,17.2,K*74
$GPZDA,154824,22,11,2018,00,00*4D
$GPGGA,154824,5742.1358,N,01155.9976,E,1,10,1.4,39,M,,M,,*78
$GPGLL,5742.1358,N,01155.9976,E,154824,A*2E
$GPVBW,,,V,9.3,-0.2,A*66
$GPVHW,261.9,T,258.9,M,,N,,K*48
$PARLICI,1,10*7C
$GPROT,35.9,A*0E
$PARLISS,32F55,3,0A,0,116,0,0,0,0,0,0,0,11E,1D9,116,0*7A
$PARLISS,32F55,4,0A,0,12,0,0,0,0,0,0,0,3,15,15,0,C,0,0*2B
$PARLISS,32F55,5,0A,0,0,0,0,0,0,0,0,0,0,0,0,0,0,0,0,0,0*69
$GPHDT,261.5,T*35
$GPVTG,261.1,T,258.1,M,9.3,N,17.2,K*7A
$GPZDA,154825,22,11,2018,00,00*4C
$GPGGA,154825,5742.1355,N,01155.9928,E,1,10,1.4,38,M,,M,,*7E
$GPGLL,5742.1355,N,01155.9928,E,154825,A*29
$GPVBW,,,V,9.3,-0.1,A*65
$GPVHW,261.3,T,258.3,M,,N,,K*48
$GPROT,15.3,A*06
$PARLISS,32F55,3,0A,0,116,0,0,0,0,0,0,0,11E,1C7,116,0*73
$PARLISS,32F55,4,0A,0,12,0,0,0,0,0,0,0,3,16,15,0,C,0,0*28
$PARLISS,32F55,5,0A,0,0,0,0,0,0,0,0,0,0,0,0,0,0,0,0,0,0*69
$GPHDT,261.0,T*30
$GPVTG,261.6,T,258.6,M,9.3,N,17.2,K*7A
$GPZDA,154826,22,11,2018,00,00*4F
$GPGGA,154826,5742.1353,N,01155.9881,E,1,10,1.4,38,M,,M,,*79
$GPGLL,5742.1353,N,01155.9881,E,154826,A*2E
$GPVBW,,,V,9.3,0.1,A*48
$GPVHW,261.0,T,258.0,M,,N,,K*48
$GPROT,-4.5,A*1D
$PARLISS,32F55,3,0A,0,115,0,0,0,0,0,0,0,11D,1C6,115,0*73
$PARLISS,32F55,4,0A,0,12,0,0,0,0,0,0,0,3,14,14,0,C,0,0*2B
$PARLISS,32F55,5,0A,0,0,0,0,0,0,0,0,0,0,0,0,0,0,0,0,0,0*69
$GPHDT,261.1,T*31
$GPVTG,261.7,T,258.7,M,9.3,N,17.2,K*7A
$GPZDA,154827,22,11,2018,00,00*4E
$GPGGA,154827,5742.1349,N,01155.9833,E,1,10,1.4,38,M,,M,,*7A
$GPGLL,5742.1349,N,01155.9833,E,154827,A*2D
$GPVBW,,,V,9.3,0.1,A*48
$GPVHW,261.2,T,258.2,M,,N,,K*48
$PARLICI,1,10*7C
$GPROT,-9.8,A*1D
$PARLISS,32F55,3,0A,0,115,0,0,0,0,0,0,0,11D,1D8,115,0*7A
$PARLISS,32F55,4,0A,0,12,0,0,0,0,0,0,0,3,14,14,0,C,0,0*2B
$PARLISS,32F55,5,0A,0,0,0,0,0,0,0,0,0,0,0,0,0,0,0,0,0,0*69
$GPHDT,261.2,T*32
$GPVTG,261.7,T,258.7,M,9.3,N,17.2,K*7A
$GPZDA,154828,22,11,2018,00,00*41
$GPGGA,154828,5742.1346,N,01155.9785,E,1,10,1.4,38,M,,M,,*78
$GPGLL,5742.1346,N,01155.9785,E,154828,A*2F
$GPVBW,,,V,9.3,0.1,A*48
$GPVHW,261.1,T,258.1,M,,N,,K*48
$GPROT,-3.2,A*1D
$PARLISS,32F55,3,0A,0,115,0,0,0,0,0,0,0,11D,1C6,115,0*73
$PARLISS,32F55,4,0A,0,12,0,0,0,0,0,0,0,3,15,14,0,C,0,0*2A
$PARLISS,32F55,5,0A,0,0,0,0,0,0,0,0,0,0,0,0,0,0,0,0,0,0*69
$GPHDT,260.9,T*38
$GPVTG,262.0,T,259.0,M,9.3,N,17.2,K*78
$GPZDA,154829,22,11,2018,00,00*40
$GPGGA,154829,5742.1343,N,01155.9737,E,1,10,1.4,38,M,,M,,*75
$GPGLL,5742.1343,N,01155.9737,E,154829,A*22
$GPVBW,,,V,9.3,0.2,A*4B
$GPVHW,260.6,T,257.6,M,,N,,K*46
$GPROT,-3.0,A*1F
$PARLISS,32F55,3,0A,0,115,0,0,0,0,0,0,0,11D,1C6,115,0*73
$PARLISS,32F55,4,0A,0,12,0,0,0,0,0,0,0,3,14,14,0,C,0,0*2B
$PARLISS,32F55,5,0A,0,0,0,0,0,0,0,0,0,0,0,0,0,0,0,0,0,0*69
$GPHDT,259.9,T*32
$GPVTG,262.1,T,259.1,M,9.3,N,17.2,K*78
$GPZDA,154830,22,11,2018,00,00*48
$GPGGA,154830,5742.1339,N,01155.9689,E,1,10,1.4,38,M,,M,,*74
$GPGLL,5742.1339,N,01155.9689,E,154830,A*23
$GPVBW,,,V,9.3,0.4,A*4D
$GPVHW,259.7,T,256.7,M,,N,,K*4D
$PARLICI,1,10*7C
$GPROT,-14.2,A*2B
$PARLISS,32F55,3,0A,0,116,0,0,0,0,0,0,0,11E,1D9,116,0*7A
$PARLISS,32F55,4,0A,0,12,0,0,0,0,0,0,0,3,14,14,0,C,0,0*2B
$PARLISS,32F55,5,0A,0,0,0,0,0,0,0,0,0,0,0,0,0,0,0,0,0,0*69
$GPHDT,259.0,T*3B
$GPVTG,261.9,T,258.9,M,9.3,N,17.2,K*7A
$GPZDA,154831,22,11,2018,00,00*49
$GPGGA,154831,5742.1335,N,01155.9641,E,1,10,1.4,38,M,,M,,*7D
$GPGLL,5742.1335,N,01155.9641,E,154831,A*2A
$GPVBW,,,V,9.3,0.5,A*4C
$GPVHW,258.6,T,255.6,M,,N,,K*4F
$GPROT,-28.6,A*20
$PARLISS,32F55,3,0A,0,116,0,0,0,0,0,0,0,11E,1C7,116,0*73
$PARLISS,32F55,4,0A,0,12,0,0,0,0,0,0,0,3,14,14,0,C,0,0*2B
$PARLISS,32F55,5,0A,0,0,0,0,0,0,0,0,0,0,0,0,0,0,0,0,0,0*69
$GPHDT,258.0,T*3A
$GPVTG,261.8,T,258.8,M,9.3,N,17.2,K*7A
$GPZDA,154832,22,11,2018,00,00*4A
$GPGGA,154832,5742.1331,N,01155.9594,E,1,10,1.4,38,M,,M,,*71
$GPGLL,5742.1331,N,01155.9594,E,154832,A*26
$GPVBW,,,V,9.3,0.7,A*4E
$GPVHW,257.7,T,254.7,M,,N,,K*41
$GPROT,-42.4,A*2E
$PARLISS,32F55,3,0A,0,116,0,0,0,0,0,0,0,11E,1C7,116,0*73
$PARLISS,32F55,4,0A,0,12,0,0,0,0,0,0,0,3,14,14,0,C,0,0*2B
$PARLISS,32F55,5,0A,0,0,0,0,0,0,0,0,0,0,0,0,0,0,0,0,0,0*69
$GPHDT,256.9,T*3D
$GPVTG,261.6,T,258.6,M,9.4,N,17.4,K*7B
$GPZDA,154833,22,11,2018,00,00*4B
$GPGGA,154833,5742.1327,N,01155.9545,E,1,10,1.4,38,M,,M,,*7B
$GPGLL,5742.1327,N,01155.9545,E,154833,A*2C
$GPVBW,,,V,9.3,0.8,A*41
$GPVHW,256.7,T,253.7,M,,N,,K*47
$PARLICI,1,10*7C
$GPROT,-49.9,A*28
$PARLISS,32F55,3,0A,0,116,0,0,0,0,0,0,0,11E,1D9,116,0*7A
$PARLISS,32F55,4,0A,0,12,0,0,0,0,0,0,0,3,14,14,0,C,0,0*2B
$PARLISS,32F55,5,0A,0,0,0,0,0,0,0,0,0,0,0,0,0,0,0,0,0,0*69
$GPHDT,256.5,T*31
$GPVTG,261.1,T,258.1,M,9.4,N,17.4,K*7B
$GPZDA,154834,22,11,2018,00,00*4C
$GPGGA,154834,5742.1322,N,01155.9498,E,1,10,1.4,38,M,,M,,*78
$GPGLL,5742.1322,N,01155.9498,E,154834,A*2F
$GPVBW,,,V,9.3,0.8,A*41
$GPVHW,256.3,T,253.3,M,,N,,K*47
$GPROT,-49.8,A*29
$PARLISS,32F55,3,0A,0,116,0,0,0,0,0,0,0,11E,1C7,116,0*73
$PARLISS,32F55,4,0A,0,12,0,0,0,0,0,0,0,3,14,14,0,C,0,0*2B
$PARLISS,32F55,5,0A,0,0,0,0,0,0,0,0,0,0,0,0,0,0,0,0,0,0*69
$GPHDT,256.0,T*34
$GPVTG,260.8,T,257.8,M,9.4,N,17.4,K*75
$GPZDA,154835,22,11,2018,00,00*4D
$GPGGA,154835,5742.1317,N,01155.9450,E,1,10,1.4,38,M,,M,,*7B
$GPGLL,5742.1317,N,01155.9450,E,154835,A*2C
$GPVBW,,,V,9.3,0.8,A*41
$GPVHW,255.8,T,252.8,M,,N,,K*45
$GPROT,-42.9,A*23
$PARLISS,32F55,3,0A,0,116,0,0,0,0,0,0,0,11E,1C7,116,0*73
$PARLISS,32F55,4,0A,0,12,0,0,0,0,0,0,0,3,15,14,0,C,0,0*2A
$PARLISS,32F55,5,0A,0,0,0,0,0,0,0,0,0,0,0,0,0,0,0,0,0,0*69
$GPHDT,255.4,T*33
$GPVTG,260.4,T,257.4,M,9.4,N,17.4,K*75
$GPZDA,154836,22,11,2018,00,00*4E
$GPGGA,154836,5742.1312,N,01155.9403,E,1,10,1.4,38,M,,M,,*7B
$GPGLL,5742.1312,N,01155.9403,E,154836,A*2C
$GPVBW,,,V,9.3,0.8,A*41
$GPVHW,255.3,T,252.3,M,,N,,K*45
$PARLICI,1,10*7C
$GPROT,-37.9,A*21
$PARLISS,32F55,3,0A,0,116,0,0,0,0,0,0,0,11E,1D9,116,0*7A
$PARLISS,32F55,4,0A,0,12,0,0,0,0,0,0,0,3,14,14,0,C,0,0*2B
$PARLISS,32F55,5,0A,0,0,0,0,0,0,0,0,0,0,0,0,0,0,0,0,0,0*69
$GPHDT,255.0,T*37
$GPVTG,260.0,T,257.0,M,9.4,N,17.4,K*75
$GPZDA,154837,22,11,2018,00,00*4F
$GPGGA,154837,5742.1306,N,01155.9355,E,1,10,1.4,38,M,,M,,*7B
$GPGLL,5742.1306,N,01155.9355,E,154837,A*2C
$GPVBW,,,V,9.3,0.8,A*41
$GPVHW,254.9,T,251.9,M,,N,,K*47
$GPROT,-34.2,A*29
$PARLISS,32F55,3,0A,0,116,0,0,0,0,0,0,0,11E,1C7,116,0*73
$PARLISS,32F55,4,0A,0,12,0,0,0,0,0,0,0,3,14,14,0,C,0,0*2B
$PARLISS,32F55,5,0A,0,0,0,0,0,0,0,0,0,0,0,0,0,0,0,0,0,0*69
$GPHDT,254.9,T*3F
$GPVTG,259.5,T,256.5,M,9.3,N,17.2,K*7F
$GPZDA,154838,22,11,2018,00,00*40
$GPGGA,154838,5742.1300,N,01155.9308,E,1,10,1.4,38,M,,M,,*7A
$GPGLL,5742.1300,N,01155.9308,E,154838,A*2D
$GPVBW,,,V,9.3,0.7,A*4E
$GPVHW,255.0,T,252.0,M,,N,,K*45
$GPROT,-28.6,A*20
$PARLISS,32F55,3,0A,0,116,0,0,0,0,0,0,0,11E,1C7,116,0*73
$PARLISS,32F55,4,0A,0,12,0,0,0,0,0,0,0,3,15,14,0,C,0,0*2A
$PARLISS,32F55,5,0A,0,0,0,0,0,0,0,0,0,0,0,0,0,0,0,0,0,0*69
$GPHDT,255.2,T*35
$GPVTG,259.2,T,256.2,M,9.3,N,17.2,K*7F
$GPZDA,154839,22,11,2018,00,00*41
$GPGGA,154839,5742.1295,N,01155.9261,E,1,10,1.4,38,M,,M,,*78
$GPGLL,5742.1295,N,01155.9261,E,154839,A*2F
$GPVBW,,,V,9.3,0.6,A*4F
$GPVHW,255.4,T,252.4,M,,N,,K*45
$PARLICI,1,10*7C
$GPROT,-15.3,A*2B
$PARLISS,32F55,3,0A,0,116,0,0,0,0,0,0,0,11E,1D9,116,0*7A
$PARLISS,32F55,4,0A,0,12,0,0,0,0,0,0,0,3,14,14,0,C,0,0*2B
$PARLISS,32F55,5,0A,0,0,0,0,0,0,0,0,0,0,0,0,0,0,0,0,0,0*69
$GPHDT,256.1,T*35
$GPVTG,258.7,T,255.7,M,9.3,N,17.2,K*7D
$GPZDA,154840,22,11,2018,00,00*4F
$GPGGA,154840,5742.1289,N,01155.9215,E,1,10,1.4,38,M,,M,,*78
$GPGLL,5742.1289,N,01155.9215,E,154840,A*2F
$GPVBW,,,V,9.3,0.4,A*4D
$GPVHW,256.3,T,253.3,M,,N,,K*47
$GPROT,4.5,A*30
$PARLISS,32F55,3,0A,0,114,0,0,0,0,0,0,0,11C,1C5,114,0*77
$PARLISS,32F55,4,0A,0,12,0,0,0,0,0,0,0,3,14,14,0,C,0,0*2B
$PARLISS,32F55,5,0A,0,0,0,0,0,0,0,0,0,0,0,0,0,0,0,0,0,0*69
$GPHDT,257.0,T*35
$GPVTG,258.4,T,255.4,M,9.3,N,17.2,K*7D
$GPZDA,154841,22,11,2018,00,00*4E
$GPGGA,154841,5742.1283,N,01155.9168,E,1,10,1.4,38,M,,M,,*7A
$GPGLL,5742.1283,N,01155.9168,E,154841,A*2D
$GPVBW,,,V,9.3,0.2,A*4B
$GPVHW,257.2,T,254.2,M,,N,,K*41
$GPROT,23.6,A*06
$PARLISS,32F55,3,0A,0,115,0,0,0,0,0,0,0,11D,1C6,115,0*73
$PARLISS,32F55,4,0A,0,12,0,0,0,0,0,0,0,3,15,14,0,C,0,0*2A
$PARLISS,32F55,5,0A,0,0,0,0,0,0,0,0,0,0,0,0,0,0,0,0,0,0*69
$GPHDT,257.5,T*30
$GPVTG,258.1,T,255.1,M,9.3,N,17.2,K*7D
$GPZDA,154842,22,11,2018,00,00*4D
$GPGGA,154842,5742.1277,N,01155.9121,E,1,10,1.4,38,M,,M,,*7F
$GPGLL,5742.1277,N,01155.9121,E,154842,A*28
$GPVBW,,,V,9.3,0.1,A*48
$GPVHW,257.5,T,254.5,M,,N,,K*41
$PARLICI,1,10*7C
$GPROT,33.8,A*09
$PARLISS,32F55,3,0A,0,115,0,0,0,0,0,0,0,11D,1D8,115,0*7A
$PARLISS,32F55,4,0A,0,12,0,0,0,0,0,0,0,3,14,14,0,C,0,0*2B
$PARLISS,32F55,5,0A,0,0,0,0,0,0,0,0,0,0,0,0,0,0,0,0,0,0*69
$GPHDT,257.4,T*31
$GPVTG,258.3,T,255.3,M,9.3,N,17.2,K*7D
$GPZDA,154843,22,11,2018,00,00*4C
$GPGGA,154843,5742.1272,N,01155.9074,E,1,10,1.4,38,M,,M,,*7A
$GPGLL,5742.1272,N,01155.9074,E,154843,A*2D
$GPVBW,,,V,9.3,0.1,A*48
$GPVHW,257.5,T,254.5,M,,N,,K*41
$GPROT,28.0,A*0B
$PARLISS,32F55,3,0A,0,115,0,0,0,0,0,0,0,11D,1C6,115,0*73
$PARLISS,32F55,4,0A,0,12,0,0,0,0,0,0,0,3,14,14,0,C,0,0*2B
$PARLISS,32F55,5,0A,0,0,0,0,0,0,0,0,0,0,0,0,0,0,0,0,0,0*69
$GPHDT,257.5,T*30
$GPVTG,258.4,T,255.4,M,9.3,N,17.2,K*7D
$GPZDA,154844,22,11,2018,00,00*4B
$GPGGA,154844,5742.1267,N,01155.9026,E,1,10,1.4,38,M,,M,,*7E
$GPGLL,5742.1267,N,01155.9026,E,154844,A*29
$GPVBW,,,V,9.3,0.1,A*48
$GPVHW,257.5,T,254.5,M,,N,,K*41
$GPROT,18.2,A*0A
$PARLISS,32F55,3,0A,0,115,0,0,0,0,0,0,0,11D,1C6,115,0*73
$PARLISS,32F55,4,0A,0,12,0,0,0,0,0,0,0,3,14,14,0,C,0,0*2B
$PARLISS,32F55,5,0A,0,0,0,0,0,0,0,0,0,0,0,0,0,0,0,0,0,0*69
$GPHDT,257.7,T*32
$GPVTG,258.4,T,255.4,M,9.3,N,17.2,K*7D
$GPZDA,154845,22,11,2018,00,00*4A
$GPGGA,154845,5742.1262,N,01155.8979,E,1,10,1.4,38,M,,M,,*78
$GPGLL,5742.1262,N,01155.8979,E,154845,A*2F
$GPVBW,,,V,9.3,0.1,A*48
$GPVHW,257.6,T,254.6,M,,N,,K*41
$PARLICI,1,10*7C
$GPROT,13.1,A*02
$PARLISS,32F55,3,0A,0,115,0,0,0,0,0,0,0,11D,1D8,115,0*7A
$PARLISS,32F55,4,0A,0,12,0,0,0,0,0,0,0,3,14,14,0,C,0,0*2B
$PARLISS,32F55,5,0A,0,0,0,0,0,0,0,0,0,0,0,0,0,0,0,0,0,0*69
$GPHDT,257.6,T*33
$GPVTG,258.6,T,255.6,M,9.3,N,17.2,K*7D
$GPZDA,154846,22,11,2018,00,00*49
$GPGGA,154846,5742.1257,N,01155.8931,E,1,10,1.4,38,M,,M,,*71
$GPGLL,5742.1257,N,01155.8931,E,154846,A*26
$GPVBW,,,V,9.3,0.1,A*48
$GPVHW,257.7,T,254.7,M,,N,,K*41
$GPROT,8.9,A*30
$PARLISS,32F55,3,0A,0,114,0,0,0,0,0,0,0,11C,1C5,114,0*77
$PARLISS,32F55,4,0A,0,12,0,0,0,0,0,0,0,3,14,14,0,C,0,0*2B
$PARLISS,32F55,5,0A,0,0,0,0,0,0,0,0,0,0,0,0,0,0,0,0,0,0*69
$GPHDT,257.9,T*3C
$GPVTG,258.6,T,255.6,M,9.3,N,17.2,K*7D
$GPZDA,154847,22,11,2018,00,00*48
$GPGGA,154847,5742.1252,N,01155.8884,E,1,10,1.4,38,M,,M,,*7A
$GPGLL,5742.1252,N,01155.8884,E,154847,A*2D
$GPVBW,,,V,9.3,0.1,A*48
$GPVHW,258.0,T,255.0,M,,N,,K*4F
$GPROT,9.8,A*30
$PARLISS,32F55,3,0A,0,114,0,0,0,0,0,0,0,11C,1C5,114,0*77
$PARLISS,32F55,4,0A,0,12,0,0,0,0,0,0,0,3,14,14,0,C,0,0*2B
$PARLISS,32F55,5,0A,0,0,0,0,0,0,0,0,0,0,0,0,0,0,0,0,0,0*69
$GPHDT,258.3,T*39
$GPVTG,258.7,T,255.7,M,9.4,N,17.4,K*7C
$GPZDA,154848,22,11,2018,00,00*47
$GPGGA,154848,5742.1247,N,01155.8836,E,1,10,1.4,38,M,,M,,*78
$GPGLL,5742.1247,N,01155.8836,E,154848,A*2F
$GPVBW,,,V,9.4,0.0,A*4E
$GPVHW,258.3,T,255.3,M,,N,,K*4F
$PARLICI,1,10*7C
$GPROT,13.3,A*00
$PARLISS,32F55,3,0A,0,115,0,0,0,0,0,0,0,11D,1D8,115,0*7A
$PARLISS,32F55,4,0A,0,12,0,0,0,0,0,0,0,3,15,14,0,C,0,0*2A
$PARLISS,32F55,5,0A,0,0,0,0,0,0,0,0,0,0,0,0,0,0,0,0,0,0*69
$GPHDT,258.4,T*3E
$GPVTG,258.8,T,255.8,M,9.3,N,17.2,K*7D
$GPZDA,154849,22,11,2018,00,00*46
$GPGGA,154849,5742.1242,N,01155.8790,E,1,10,1.4,38,M,,M,,*7F
$GPGLL,5742.1242,N,01155.8790,E,154849,A*28
$GPVBW,,,V,9.3,0.0,A*49
$GPVHW,258.5,T,255.5,M,,N,,K*4F
$GPROT,15.5,A*00
$PARLISS,32F55,3,0A,0,115,0,0,0,0,0,0,0,11D,1C6,115,0*73
$PARLISS,32F55,4,0A,0,12,0,0,0,0,0,0,0,3,14,14,0,C,0,0*2B
$PARLISS,32F55,5,0A,0,0,0,0,0,0,0,0,0,0,0,0,0,0,0,0,0,0*69
$GPHDT,258.4,T*3E
$GPVTG,259.0,T,256.0,M,9.4,N,17.4,K*7E
$GPZDA,154850,22,11,2018,00,00*4E
$GPGGA,154850,5742.1237,N,01155.8741,E,1,10,1.4,38,M,,M,,*79
$GPGLL,5742.1237,N,01155.8741,E,154850,A*2E
$GPVBW,,,V,9.4,0.1,A*4F
$GPVHW,258.4,T,255.4,M,,N,,K*4F
$GPROT,14.0,A*04
$PARLISS,32F55,3,0A,0,115,0,0,0,0,0,0,0,11D,1C6,115,0*73
$PARLISS,32F55,4,0A,0,12,0,0,0,0,0,0,0,3,14,14,0,C,0,0*2B
$PARLISS,32F55,5,0A,0,0,0,0,0,0,0,0,0,0,0,0,0,0,0,0,0,0*69
$GPHDT,258.4,T*3E
$GPVTG,259.2,T,256.2,M,9.4,N,17.4,K*7E
$GPZDA,154851,22,11,2018,00,00*4F
$GPGGA,154851,5742.1233,N,01155.8694,E,1,10,1.4,38,M,,M,,*75
$GPGLL,5742.1233,N,01155.8694,E,154851,A*22
$GPVBW,,,V,9.4,0.1,A*4F
$GPVHW,258.4,T,255.4,M,,N,,K*4F
$PARLICI,1,10*7C
$GPROT,8.5,A*3C
$PARLISS,32F55,3,0A,0,114,0,0,0,0,0,0,0,11C,1D7,114,0*72
$PARLISS,32F55,4,0A,0,12,0,0,0,0,0,0,0,3,15,14,0,C,0,0*2A
$PARLISS,32F55,5,0A,0,0,0,0,0,0,0,0,0,0,0,0,0,0,0,0,0,0*69
$GPHDT,258.2,T*38
$GPVTG,259.4,T,256.4,M,9.4,N,17.4,K*7E
$GPZDA,154852,22,11,2018,00,00*4C
$GPGGA,154852,5742.1228,N,01155.8646,E,1,10,1.4,38,M,,M,,*73
$GPGLL,5742.1228,N,01155.8646,E,154852,A*24
$GPVBW,,,V,9.4,0.2,A*4C
$GPVHW,258.0,T,255.0,M,,N,,K*4F
$GPROT,4.0,A*35
$PARLISS,32F55,3,0A,0,114,0,0,0,0,0,0,0,11C,1C5,114,0*77
$PARLISS,32F55,4,0A,0,12,0,0,0,0,0,0,0,3,14,14,0,C,0,0*2B
$PARLISS,32F55,5,0A,0,0,0,0,0,0,0,0,0,0,0,0,0,0,0,0,0,0*69
$GPHDT,257.7,T*32
$GPVTG,259.6,T,256.6,M,9.4,N,17.4,K*7E
$GPZDA,154853,22,11,2018,00,00*4D
$GPGGA,154853,5742.1224,N,01155.8599,E,1,10,1.4,38,M,,M,,*7F
$GPGLL,5742.1224,N,01155.8599,E,154853,A*28
$GPVBW,,,V,9.4,0.3,A*4D
$GPVHW,257.6,T,254.6,M,,N,,K*41
$GPROT,-6.4,A*1E
$PARLISS,32F55,3,0A,0,115,0,0,0,0,0,0,0,11D,1C6,115,0*73
$PARLISS,32F55,4,0A,0,12,0,0,0,0,0,0,0,3,14,14,0,C,0,0*2B
$PARLISS,32F55,5,0A,0,0,0,0,0,0,0,0,0,0,0,0,0,0,0,0,0,0*69
$GPHDT,257.2,T*37
$GPVTG,259.7,T,256.7,M,9.4,N,17.4,K*7E
$GPZDA,154854,22,11,2018,00,00*4A
$GPGGA,154854,5742.1220,N,01155.8551,E,1,10,1.4,38,M,,M,,*78
$GPGLL,5742.1220,N,01155.8551,E,154854,A*2F
$GPVBW,,,V,9.4,0.4,A*4A
$GPVHW,257.0,T,254.0,M,,N,,K*41
$PARLICI,1,10*7C
$GPROT,-12.7,A*28
$PARLISS,32F55,3,0A,0,116,0,0,0,0,0,0,0,11E,1D9,116,0*7A
$PARLISS,32F55,4,0A,0,12,0,0,0,0,0,0,0,3,14,14,0,C,0,0*2B
$PARLISS,32F55,5,0A,0,0,0,0,0,0,0,0,0,0,0,0,0,0,0,0,0,0*69
$GPHDT,256.8,T*3C
$GPVTG,259.6,T,256.6,M,9.4,N,17.4,K*7E
$GPZDA,154855,22,11,2018,00,00*4B
$GPGGA,154855,5742.1215,N,01155.8503,E,1,10,1.4,38,M,,M,,*78
$GPGLL,5742.1215,N,01155.8503,E,154855,A*2F
$GPVBW,,,V,9.4,0.5,A*4B
$GPVHW,256.7,T,253.7,M,,N,,K*47
$GPROT,-19.4,A*20
$PARLISS,32F55,3,0A,0,116,0,0,0,0,0,0,0,11E,1C7,116,0*73
$PARLISS,32F55,4,0A,0,12,0,0,0,0,0,0,0,3,14,14,0,C,0,0*2B
$PARLISS,32F55,5,0A,0,0,0,0,0,0,0,0,0,0,0,0,0,0,0,0,0,0*69
$GPHDT,256.3,T*37
$GPVTG,259.7,T,256.7,M,9.4,N,17.4,K*7E
$GPZDA,154856,22,11,2018,00,00*48
$GPGGA,154856,5742.1210,N,01155.8456,E,1,10,1.4,38,M,,M,,*7F
$GPGLL,5742.1210,N,01155.8456,E,154856,A*28
$GPVBW,,,V,9.4,0.6,A*48
$GPVHW,256.2,T,253.2,M,,N,,K*47
$GPROT,-21.7,A*28
$PARLISS,32F55,3,0A,0,116,0,0,0,0,0,0,0,11E,1C7,116,0*73
$PARLISS,32F55,4,0A,0,12,0,0,0,0,0,0,0,3,14,14,0,C,0,0*2B
$PARLISS,32F55,5,0A,0,0,0,0,0,0,0,0,0,0,0,0,0,0,0,0,0,0*69
$GPHDT,256.0,T*34
$GPVTG,259.5,T,256.5,M,9.4,N,17.4,K*7E
$GPZDA,154857,22,11,2018,00,00*49
$GPGGA,154857,5742.1205,N,01155.8408,E,1,10,1.4,38,M,,M,,*71
$GPGLL,5742.1205,N,01155.8408,E,154857,A*26
$GPVBW,,,V,9.4,0.6,A*48
$GPVHW,255.9,T,252.9,M,,N,,K*45
$PARLICI,1,10*7C
$GPROT,-23.6,A*2B
$PARLISS,32F55,3,0A,0,116,0,0,0,0,0,0,0,11E,1D9,116,0*7A
$PARLISS,32F55,4,0A,0,12,0,0,0,0,0,0,0,3,14,14,0,C,0,0*2B
$PARLISS,32F55,5,0A,0,0,0,0,0,0,0,0,0,0,0,0,0,0,0,0,0,0*69
$GPHDT,255.6,T*31
$GPVTG,259.3,T,256.3,M,9.4,N,17.4,K*7E
$GPZDA,154858,22,11,2018,00,00*46
$GPGGA,154858,5742.1199,N,01155.8360,E,1,10,1.4,38,M,,M,,*71
$GPGLL,5742.1199,N,01155.8360,E,154858,A*26
$GPVBW,,,V,9.4,0.6,A*48
$GPVHW,255.5,T,252.5,M,,N,,K*45
$GPROT,-22.2,A*2E
$PARLISS,32F55,3,0A,0,116,0,0,0,0,0,0,0,11E,1C7,116,0*73
$PARLISS,32F55,4,0A,0,12,0,0,0,0,0,0,0,3,14,14,0,C,0,0*2B
$PARLISS,32F55,5,0A,0,0,0,0,0,0,0,0,0,0,0,0,0,0,0,0,0,0*69
$GPHDT,255.4,T*33
$GPVTG,259.1,T,256.1,M,9.4,N,17.4,K*7E
$GPZDA,154859,22,11,2018,00,00*47
$GPGGA,154859,5742.1194,N,01155.8312,E,1,10,1.4,38,M,,M,,*78
$GPGLL,5742.1194,N,01155.8312,E,154859,A*2F
$GPVBW,,,V,9.4,0.6,A*48
$GPVHW,255.3,T,252.3,M,,N,,K*45
$GPROT,-20.8,A*26
$PARLISS,32F55,3,0A,0,116,0,0,0,0,0,0,0,11E,1C7,116,0*73
$PARLISS,32F55,4,0A,0,12,0,0,0,0,0,0,0,3,14,14,0,C,0,0*2B
$PARLISS,32F55,5,0A,0,0,0,0,0,0,0,0,0,0,0,0,0,0,0,0,0,0*69
$GPHDT,255.4,T*33
$GPVTG,258.9,T,255.9,M,9.4,N,17.4,K*7C
$GPZDA,154900,22,11,2018,00,00*4A
$GPGGA,154900,5742.1188,N,01155.8264,E,1,10,1.4,38,M,,M,,*78
$GPGLL,5742.1188,N,01155.8264,E,154900,A*2F
$GPVBW,,,V,9.4,0.6,A*48
$GPVHW,255.5,T,252.5,M,,N,,K*45
$PARLICI,1,10*7C
$GPROT,-16.1,A*2A
$PARLISS,32F55,3,0A,0,116,0,0,0,0,0,0,0,11E,1D9,116,0*7A
$PARLISS,32F55,4,0A,0,12,0,0,0,0,0,0,0,3,14,14,0,C,0,0*2B
$PARLISS,32F55,5,0A,0,0,0,0,0,0,0,0,0,0,0,0,0,0,0,0,0,0*69
$GPHDT,256.0,T*34
$GPVTG,258.5,T,255.5,M,9.4,N,17.4,K*7C
$GPZDA,154901,22,11,2018,00,00*4B
$GPGGA,154901,5742.1182,N,01155.8217,E,1,10,1.4,38,M,,M,,*77
$GPGLL,5742.1182,N,01155.8217,E,154901,A*20
$GPVBW,,,V,9.4,0.4,A*4A
$GPVHW,256.1,T,253.1,M,,N,,K*47
$GPROT,-4.1,A*19
$PARLISS,32F55,3,0A,0,115,0,0,0,0,0,0,0,11D,1C6,115,0*73
$PARLISS,32F55,4,0A,0,12,0,0,0,0,0,0,0,3,15,14,0,C,0,0*2A
$PARLISS,32F55,5,0A,0,0,0,0,0,0,0,0,0,0,0,0,0,0,0,0,0,0*69
$GPHDT,256.6,T*32
$GPVTG,258.4,T,255.4,M,9.4,N,17.4,K*7C
$GPZDA,154902,22,11,2018,00,00*48
$GPGGA,154902,5742.1177,N,01155.8170,E,1,10,1.4,38,M,,M,,*7C
$GPGLL,5742.1177,N,01155.8170,E,154902,A*2B
$GPVBW,,,V,9.4,0.2,A*4C
$GPVHW,256.9,T,253.9,M,,N,,K*47
$GPROT,12.2,A*00
$PARLISS,32F55,3,0A,0,115,0,0,0,0,0,0,0,11D,1C6,115,0*73
$PARLISS,32F55,4,0A,0,12,0,0,0,0,0,0,0,3,14,14,0,C,0,0*2B
$PARLISS,32F55,5,0A,0,0,0,0,0,0,0,0,0,0,0,0,0,0,0,0,0,0*69
$GPHDT,257.5,T*30
$GPVTG,258.4,T,255.4,M,9.4,N,17.4,K*7C
$GPZDA,154903,22,11,2018,00,00*49
$GPGGA,154903,5742.1171,N,01155.8123,E,1,10,1.4,38,M,,M,,*7D
$GPGLL,5742.1171,N,01155.8123,E,154903,A*2A
$GPVBW,,,V,9.4,0.1,A*4F
$GPVHW,257.8,T,254.8,M,,N,,K*41
$PARLICI,1,10*7C
$GPROT,27.1,A*05
$PARLISS,32F55,3,0A,0,115,0,0,0,0,0,0,0,11D,1D8,115,0*7A
$PARLISS,32F55,4,0A,0,12,0,0,0,0,0,0,0,3,14,14,0,C,0,0*2B
$PARLISS,32F55,5,0A,0,0,0,0,0,0,0,0,0,0,0,0,0,0,0,0,0,0*69
$GPHDT,258.4,T*3E
$GPVTG,258.1,T,255.1,M,9.3,N,17.2,K*7D
$GPZDA,154904,22,11,2018,00,00*4E
$GPGGA,154904,5742.1165,N,01155.8077,E,1,10,1.4,38,M,,M,,*7F
$GPGLL,5742.1165,N,01155.8077,E,154904,A*28
$GPVBW,,,V,9.3,-0.1,A*65
$GPVHW,258.6,T,255.6,M,,N,,K*4F
$GPROT,38.5,A*0F
$PARLISS,32F55,3,0A,0,116,0,0,0,0,0,0,0,11E,1C7,116,0*73
$PARLISS,32F55,4,0A,0,12,0,0,0,0,0,0,0,3,16,15,0,C,0,0*28
$PARLISS,32F55,5,0A,0,0,0,0,0,0,0,0,0,0,0,0,0,0,0,0,0,0*69
$GPHDT,258.8,T*32
$GPVTG,258.2,T,255.2,M,9.4,N,17.4,K*7C
$GPZDA,154905,22,11,2018,00,00*4F
$GPGGA,154905,5742.1160,N,01155.8029,E,1,10,1.4,38,M,,M,,*70
$GPGLL,5742.1160,N,01155.8029,E,154905,A*27
$GPVBW,,,V,9.4,-0.1,A*62
$GPVHW,258.9,T,255.9,M,,N,,K*4F
$GPROT,42.0,A*07
$PARLISS,32F55,3,0A,0,116,0,0,0,0,0,0,0,11E,1C7,116,0*73
$PARLISS,32F55,4,0A,0,12,0,0,0,0,0,0,0,3,15,15,0,C,0,0*2B
$PARLISS,32F55,5,0A,0,0,0,0,0,0,0,0,0,0,0,0,0,0,0,0,0,0*69
$GPHDT,259.1,T*3A
$GPVTG,258.6,T,255.6,M,9.3,N,17.2,K*7D
$GPZDA,154906,22,11,2018,00,00*4C
$GPGGA,154906,5742.1156,N,01155.7983,E,1,10,1.4,38,M,,M,,*70
$GPGLL,5742.1156,N,01155.7983,E,154906,A*27
$GPVBW,,,V,9.3,-0.1,A*65
$GPVHW,259.1,T,256.1,M,,N,,K*4D
$PARLICI,1,10*7C
$GPROT,35.7,A*00
$PARLISS,32F55,3,0A,0,116,0,0,0,0,0,0,0,11E,1D9,116,0*7A
$PARLISS,32F55,4,0A,0,12,0,0,0,0,0,0,0,3,15,15,0,C,0,0*2B
$PARLISS,32F55,5,0A,0,0,0,0,0,0,0,0,0,0,0,0,0,0,0,0,0,0*69
$GPHDT,259.3,T*38
$GPVTG,258.6,T,255.6,M,9.3,N,17.2,K*7D
$GPZDA,154907,22,11,2018,00,00*4D
$GPGGA,154907,5742.1151,N,01155.7936,E,1,10,1.4,38,M,,M,,*78
$GPGLL,5742.1151,N,01155.7936,E,154907,A*2F
$GPVBW,,,V,9.3,-0.1,A*65
$GPVHW,259.4,T,256.4,M,,N,,K*4D
$GPROT,28.7,A*0C
$PARLISS,32F55,3,0A,0,116,0,0,0,0,0,0,0,11E,1C7,116,0*73
$PARLISS,32F55,4,0A,0,12,0,0,0,0,0,0,0,3,16,15,0,C,0,0*28
$PARLISS,32F55,5,0A,0,0,0,0,0,0,0,0,0,0,0,0,0,0,0,0,0,0*69
$GPHDT,259.3,T*38
$GPVTG,258.8,T,255.8,M,9.3,N,17.2,K*7D
$GPZDA,154908,22,11,2018,00,00*42
$GPGGA,154908,5742.1146,N,01155.7888,E,1,10,1.4,38,M,,M,,*75
$GPGLL,5742.1146,N,01155.7888,E,154908,A*22
$GPVBW,,,V,9.4,-0.1,A*62
$GPVHW,259.1,T,256.1,M,,N,,K*4D
$GPROT,21.7,A*05
$PARLISS,32F55,3,0A,0,116,0,0,0,0,0,0,0,11E,1C7,116,0*73
$PARLISS,32F55,4,0A,0,12,0,0,0,0,0,0,0,3,15,15,0,C,0,0*2B
$PARLISS,32F55,5,0A,0,0,0,0,0,0,0,0,0,0,0,0,0,0,0,0,0,0*69
$GPHDT,258.6,T*3C
$GPVTG,259.2,T,256.2,M,9.3,N,17.2,K*7F
$GPZDA,154909,22,11,2018,00,00*43
$GPGGA,154909,5742.1142,N,01155.7841,E,1,10,1.4,38,M,,M,,*75
$GPGLL,5742.1142,N,01155.7841,E,154909,A*22
$GPVBW,,,V,9.4,0.1,A*4F
$GPVHW,258.4,T,255.4,M,,N,,K*4F
$PARLICI,1,10*7C
$GPROT,6.7,A*30
$PARLISS,32F55,3,0A,0,114,0,0,0,0,0,0,0,11C,1D7,114,0*72
$PARLISS,32F55,4,0A,0,12,0,0,0,0,0,0,0,3,14,14,0,C,0,0*2B
$PARLISS,32F55,5,0A,0,0,0,0,0,0,0,0,0,0,0,0,0,0,0,0,0,0*69
$GPHDT,257.7,T*32
$GPVTG,259.3,T,256.3,M,9.3,N,17.2,K*7F
$GPZDA,154910,22,11,2018,00,00*4B
$GPGGA,154910,5742.1138,N,01155.7793,E,1,10,1.4,38,M,,M,,*70
$GPGLL,5742.1138,N,01155.7793,E,154910,A*27
$GPVBW,,,V,9.3,0.3,A*4A
$GPVHW,257.4,T,254.4,M,,N,,K*41
$GPROT,-12.4,A*2B
$PARLISS,32F55,3,0A,0,116,0,0,0,0,0,0,0,11E,1C7,116,0*73
$PARLISS,32F55,4,0A,0,12,0,0,0,0,0,0,0,3,14,14,0,C,0,0*2B
$PARLISS,32F55,5,0A,0,0,0,0,0,0,0,0,0,0,0,0,0,0,0,0,0,0*69
$GPHDT,256.8,T*3C
$GPVTG,259.4,T,256.4,M,9.4,N,17.4,K*7E
$GPZDA,154911,22,11,2018,00,00*4A
$GPGGA,154911,5742.1133,N,01155.7746,E,1,10,1.4,39,M,,M,,*73
$GPGLL,5742.1133,N,01155.7746,E,154911,A*25
$GPVBW,,,V,9.4,0.4,A*4A
$GPVHW,256.7,T,253.7,M,,N,,K*47
$GPROT,-29.1,A*26
$PARLISS,32F55,3,0A,0,116,0,0,0,0,0,0,0,11E,1C7,116,0*73
$PARLISS,32F55,4,0A,0,12,0,0,0,0,0,0,0,3,15,14,0,C,0,0*2A
$PARLISS,32F55,5,0A,0,0,0,0,0,0,0,0,0,0,0,0,0,0,0,0,0,0*69
$GPHDT,256.7,T*33
$GPVTG,259.6,T,256.6,M,9.3,N,17.2,K*7F
$GPZDA,154912,22,11,2018,00,00*49
$GPGGA,154912,5742.1129,N,01155.7699,E,1,10,1.4,39,M,,M,,*78
$GPGLL,5742.1129,N,01155.7699,E,154912,A*2E
$GPVBW,,,V,9.3,0.4,A*4D
$GPVHW,256.8,T,253.8,M,,N,,K*47
$PARLICI,1,10*7C
$GPROT,-31.1,A*2F
$PARLISS,32F55,3,0A,0,116,0,0,0,0,0,0,0,11E,1D9,116,0*7A
$PARLISS,32F55,4,0A,0,12,0,0,0,0,0,0,0,3,14,14,0,C,0,0*2B
$PARLISS,32F55,5,0A,0,0,0,0,0,0,0,0,0,0,0,0,0,0,0,0,0,0*69
$GPHDT,257.2,T*37
$GPVTG,259.3,T,256.3,M,9.4,N,17.4,K*7E
$GPZDA,154913,22,11,2018,00,00*48
$GPGGA,154913,5742.1123,N,01155.7651,E,1,10,1.4,39,M,,M,,*77
$GPGLL,5742.1123,N,01155.7651,E,154913,A*21
$GPVBW,,,V,9.4,0.3,A*4D
$GPVHW,257.5,T,254.5,M,,N,,K*41
$GPROT,-15.6,A*2E
$PARLISS,32F55,3,0A,0,116,0,0,0,0,0,0,0,11E,1C7,116,0*73
$PARLISS,32F55,4,0A,0,12,0,0,0,0,0,0,0,3,14,14,0,C,0,0*2B
$PARLISS,32F55,5,0A,0,0,0,0,0,0,0,0,0,0,0,0,0,0,0,0,0,0*69
$GPHDT,258.2,T*38
$GPVTG,259.2,T,256.2,M,9.3,N,17.2,K*7F
$GPZDA,154914,22,11,2018,00,00*4F
$GPGGA,154914,5742.1118,N,01155.7604,E,1,10,1.4,39,M,,M,,*78
$GPGLL,5742.1118,N,01155.7604,E,154914,A*2E
$GPVBW,,,V,9.3,0.1,A*48
$GPVHW,258.4,T,255.4,M,,N,,K*4F
$GPROT,7.9,A*3F
$PARLISS,32F55,3,0A,0,114,0,0,0,0,0,0,0,11C,1C5,114,0*77
$PARLISS,32F55,4,0A,0,12,0,0,0,0,0,0,0,3,15,14,0,C,0,0*2A
$PARLISS,32F55,5,0A,0,0,0,0,0,0,0,0,0,0,0,0,0,0,0,0,0,0*69
$GPHDT,259.0,T*3B
$GPVTG,259.3,T,256.3,M,9.4,N,17.4,K*7E
$GPZDA,154915,22,11,2018,00,00*4E
$GPGGA,154915,5742.1114,N,01155.7557,E,1,10,1.4,39,M,,M,,*70
$GPGLL,5742.1114,N,01155.7557,E,154915,A*26
$GPVBW,,,V,9.4,0.0,A*4E
$GPVHW,259.2,T,256.2,M,,N,,K*4D
$PARLICI,1,10*7C
$GPROT,27.6,A*02
$PARLISS,32F55,3,0A,0,115,0,0,0,0,0,0,0,11D,1D8,115,0*7A
$PARLISS,32F55,4,0A,0,12,0,0,0,0,0,0,0,3,14,14,0,C,0,0*2B
$PARLISS,32F55,5,0A,0,0,0,0,0,0,0,0,0,0,0,0,0,0,0,0,0,0*69
$GPHDT,259.4,T*3F
$GPVTG,259.2,T,256.2,M,9.3,N,17.2,K*7F
$GPZDA,154916,22,11,2018,00,00*4D
$GPGGA,154916,5742.1109,N,01155.7510,E,1,10,1.4,39,M,,M,,*7C
$GPGLL,5742.1109,N,01155.7510,E,154916,A*2A
$GPVBW,,,V,9.4,-0.1,A*62
$GPVHW,259.6,T,256.6,M,,N,,K*4D
$GPROT,35.3,A*04
$PARLISS,32F55,3,0A,0,116,0,0,0,0,0,0,0,11E,1C7,116,0*73
$PARLISS,32F55,4,0A,0,12,0,0,0,0,0,0,0,3,15,15,0,C,0,0*2B
$PARLISS,32F55,5,0A,0,0,0,0,0,0,0,0,0,0,0,0,0,0,0,0,0,0*69
$GPHDT,259.5,T*3E
$GPVTG,259.6,T,256.6,M,9.3,N,17.2,K*7F
$GPZDA,154917,22,11,2018,00,00*4C
$GPGGA,154917,5742.1105,N,01155.7462,E,1,10,1.4,39,M,,M,,*75
$GPGLL,5742.1105,N,01155.7462,E,154917,A*23
$GPVBW,,,V,9.3,0.0,A*49
$GPVHW,259.5,T,256.5,M,,N,,K*4D
$GPROT,31.7,A*04
$PARLISS,32F55,3,0A,0,115,0,0,0,0,0,0,0,11D,1C6,115,0*73
$PARLISS,32F55,4,0A,0,12,0,0,0,0,0,0,0,3,15,14,0,C,0,0*2A
$PARLISS,32F55,5,0A,0,0,0,0,0,0,0,0,0,0,0,0,0,0,0,0,0,0*69
$GPHDT,259.4,T*3F
$GPVTG,260.0,T,257.0,M,9.4,N,17.4,K*75
$GPZDA,154918,22,11,2018,00,00*43
$GPGGA,154918,5742.1101,N,01155.7414,E,1,10,1.4,39,M,,M,,*7F
$GPGLL,5742.1101,N,01155.7414,E,154918,A*29
$GPVBW,,,V,9.4,0.1,A*4F
$GPVHW,259.4,T,256.4,M,,N,,K*4D
$PARLICI,1,10*7C
$GPROT,20.0,A*03
$PARLISS,32F55,3,0A,0,115,0,0,0,0,0,0,0,11D,1D8,115,0*7A
$PARLISS,32F55,4,0A,0,12,0,0,0,0,0,0,0,3,14,14,0,C,0,0*2B
$PARLISS,32F55,5,0A,0,0,0,0,0,0,0,0,0,0,0,0,0,0,0,0,0,0*69
$GPHDT,259.6,T*3D
$GPVTG,260.1,T,257.1,M,9.4,N,17.4,K*75
$GPZDA,154919,22,11,2018,00,00*42
$GPGGA,154919,5742.1097,N,01155.7366,E,1,10,1.4,39,M,,M,,*72
$GPGLL,5742.1097,N,01155.7366,E,154919,A*24
$GPVBW,,,V,9.4,0.1,A*4F
$GPVHW,259.6,T,256.6,M,,N,,K*4D
$GPROT,11.8,A*09
$PARLISS,32F55,3,0A,0,115,0,0,0,0,0,0,0,11D,1C6,115,0*73
$PARLISS,32F55,4,0A,0,12,0,0,0,0,0,0,0,3,14,14,0,C,0,0*2B
$PARLISS,32F55,5,0A,0,0,0,0,0,0,0,0,0,0,0,0,0,0,0,0,0,0*69
$GPHDT,259.6,T*3D
$GPVTG,260.4,T,257.4,M,9.4,N,17.4,K*75
$GPZDA,154920,22,11,2018,00,00*48
$GPGGA,154920,5742.1093,N,01155.7318,E,1,10,1.4,39,M,,M,,*75
$GPGLL,5742.1093,N,01155.7318,E,154920,A*23
$GPVBW,,,V,9.4,0.1,A*4F
$GPVHW,259.5,T,256.5,M,,N,,K*4D
$GPROT,9.2,A*3A
$PARLISS,32F55,3,0A,0,114,0,0,0,0,0,0,0,11C,1C5,114,0*77
$PARLISS,32F55,4,0A,0,12,0,0,0,0,0,0,0,3,15,14,0,C,0,0*2A
$PARLISS,32F55,5,0A,0,0,0,0,0,0,0,0,0,0,0,0,0,0,0,0,0,0*69
$GPHDT,259.3,T*38
$GPVTG,260.7,T,257.7,M,9.4,N,17.4,K*75
$GPZDA,154921,22,11,2018,00,00*49
$GPGGA,154921,5742.1090,N,01155.7269,E,1,10,1.4,39,M,,M,,*70
$GPGLL,5742.1090,N,01155.7269,E,154921,A*26
$GPVBW,,,V,9.4,0.2,A*4C
$GPVHW,259.3,T,256.3,M,,N,,K*4D
$PARLICI,1,10*7C
$GPROT,2.9,A*3A
$PARLISS,32F55,3,0A,0,114,0,0,0,0,0,0,0,11C,1D7,114,0*72
$PARLISS,32F55,4,0A,0,12,0,0,0,0,0,0,0,3,14,14,0,C,0,0*2B
$PARLISS,32F55,5,0A,0,0,0,0,0,0,0,0,0,0,0,0,0,0,0,0,0,0*69
$GPHDT,259.2,T*39
$GPVTG,260.9,T,257.9,M,9.4,N,17.4,K*75
$GPZDA,154922,22,11,2018,00,00*4A
$GPGGA,154922,5742.1086,N,01155.7221,E,1,10,1.4,39,M,,M,,*78
$GPGLL,5742.1086,N,01155.7221,E,154922,A*2E
$GPVBW,,,V,9.4,0.3,A*4D
$GPVHW,259.2,T,256.2,M,,N,,K*4D
$GPROT,-1.9,A*14
$PARLISS,32F55,3,0A,0,115,0,0,0,0,0,0,0,11D,1C6,115,0*73
$PARLISS,32F55,4,0A,0,12,0,0,0,0,0,0,0,3,14,14,0,C,0,0*2B
$PARLISS,32F55,5,0A,0,0,0,0,0,0,0,0,0,0,0,0,0,0,0,0,0,0*69
$GPHDT,258.9,T*33
$GPVTG,261.0,T,258.0,M,9.4,N,17.4,K*7B
$GPZDA,154923,22,11,2018,00,00*4B
$GPGGA,154923,5742.1082,N,01155.7173,E,1,10,1.4,39,M,,M,,*79
$GPGLL,5742.1082,N,01155.7173,E,154923,A*2F
$GPVBW,,,V,9.4,0.4,A*4A
$GPVHW,258.7,T,255.7,M,,N,,K*4F
$GPROT,-5.5,A*1C
$PARLISS,32F55,3,0A,0,115,0,0,0,0,0,0,0,11D,1C6,115,0*73
$PARLISS,32F55,4,0A,0,12,0,0,0,0,0,0,0,3,14,14,0,C,0,0*2B
$PARLISS,32F55,5,0A,0,0,0,0,0,0,0,0,0,0,0,0,0,0,0,0,0,0*69
$GPHDT,258.2,T*38
$GPVTG,261.2,T,258.2,M,9.4,N,17.4,K*7B
$GPZDA,154924,22,11,2018,00,00*4C
$GPGGA,154924,5742.1079,N,01155.7125,E,1,10,1.4,39,M,,M,,*79
$GPGLL,5742.1079,N,01155.7125,E,154924,A*2F
$GPVBW,,,V,9.4,0.5,A*4B
$GPVHW,258.1,T,255.1,M,,N,,K*4F
$PARLICI,1,10*7C
$GPROT,-13.8,A*26
$PARLISS,32F55,3,0A,0,116,0,0,0,0,0,0,0,11E,1D9,116,0*7A
$PARLISS,32F55,4,0A,0,12,0,0,0,0,0,0,0,3,14,14,0,C,0,0*2B
$PARLISS,32F55,5,0A,0,0,0,0,0,0,0,0,0,0,0,0,0,0,0,0,0,0*69
$GPHDT,258.1,T*3B
$GPVTG,261.5,T,258.5,M,9.4,N,17.4,K*7B
$GPZDA,154925,22,11,2018,00,00*4D
$GPGGA,154925,5742.1076,N,01155.7076,E,1,10,1.4,39,M,,M,,*70
$GPGLL,5742.1076,N,01155.7076,E,154925,A*26
$GPVBW,,,V,9.4,0.5,A*4B
$GPVHW,258.2,T,255.2,M,,N,,K*4F
$GPROT,-18.5,A*20
$PARLISS,32F55,3,0A,0,116,0,0,0,0,0,0,0,11E,1C7,116,0*73
$PARLISS,32F55,4,0A,0,12,0,0,0,0,0,0,0,3,14,14,0,C,0,0*2B
$PARLISS,32F55,5,0A,0,0,0,0,0,0,0,0,0,0,0,0,0,0,0,0,0,0*69
$GPHDT,258.4,T*3E
$GPVTG,261.1,T,258.1,M,9.4,N,17.4,K*7B
$GPZDA,154926,22,11,2018,00,00*4E
$GPGGA,154926,5742.1071,N,01155.7028,E,1,10,1.4,39,M,,M,,*7F
$GPGLL,5742.1071,N,01155.7028,E,154926,A*29
$GPVBW,,,V,9.4,0.4,A*4A
$GPVHW,258.4,T,255.4,M,,N,,K*4F
$GPROT,-10.7,A*2A
$PARLISS,32F55,3,0A,0,116,0,0,0,0,0,0,0,11E,1C7,116,0*73
$PARLISS,32F55,4,0A,0,12,0,0,0,0,0,0,0,3,14,14,0,C,0,0*2B
$PARLISS,32F55,5,0A,0,0,0,0,0,0,0,0,0,0,0,0,0,0,0,0,0,0*69
$GPHDT,258.5,T*3F
$GPVTG,261.2,T,258.2,M,9.4,N,17.4,K*7B
$GPZDA,154927,22,11,2018,00,00*4F
$GPGGA,154927,5742.1067,N,01155.6980,E,1,10,1.4,39,M,,M,,*73
$GPGLL,5742.1067,N,01155.6980,E,154927,A*25
$GPVBW,,,V,9.4,0.4,A*4A
$GPVHW,258.5,T,255.5,M,,N,,K*4F
$PARLICI,1,10*7C
$GPROT,-1.7,A*1A
$PARLISS,32F55,3,0A,0,115,0,0,0,0,0,0,0,11D,1D8,115,0*7A
$PARLISS,32F55,4,0A,0,12,0,0,0,0,0,0,0,3,15,14,0,C,0,0*2A
$PARLISS,32F55,5,0A,0,0,0,0,0,0,0,0,0,0,0,0,0,0,0,0,0,0*69
$GPHDT,258.8,T*32
$GPVTG,261.4,T,258.4,M,9.4,N,17.4,K*7B
$GPZDA,154928,22,11,2018,00,00*40
$GPGGA,154928,5742.1063,N,01155.6931,E,1,10,1.4,39,M,,M,,*72
$GPGLL,5742.1063,N,01155.6931,E,154928,A*24
$GPVBW,,,V,9.4,0.4,A*4A
$GPVHW,259.0,T,256.0,M,,N,,K*4D
$GPROT,4.5,A*30
$PARLISS,32F55,3,0A,0,114,0,0,0,0,0,0,0,11C,1C5,114,0*77
$PARLISS,32F55,4,0A,0,12,0,0,0,0,0,0,0,3,14,14,0,C,0,0*2B
$PARLISS,32F55,5,0A,0,0,0,0,0,0,0,0,0,0,0,0,0,0,0,0,0,0*69
$GPHDT,259.6,T*3D
$GPVTG,261.1,T,258.1,M,9.4,N,17.4,K*7B
$GPZDA,154929,22,11,2018,00,00*41
$GPGGA,154929,5742.1059,N,01155.6883,E,1,10,1.4,39,M,,M,,*72
$GPGLL,5742.1059,N,01155.6883,E,154929,A*24
$GPVBW,,,V,9.4,0.2,A*4C
$GPVHW,259.7,T,256.7,M,,N,,K*4D
$GPROT,16.3,A*05
$PARLISS,32F55,3,0A,0,115,0,0,0,0,0,0,0,11D,1C6,115,0*73
$PARLISS,32F55,4,0A,0,12,0,0,0,0,0,0,0,3,14,14,0,C,0,0*2B
$PARLISS,32F55,5,0A,0,0,0,0,0,0,0,0,0,0,0,0,0,0,0,0,0,0*69
$GPHDT,259.9,T*32
$GPVTG,261.1,T,258.1,M,9.5,N,17.5,K*7B
